@lat	@lon	addr:street	addr:housenumber	name
50.0477480	19.9024834	Wioślarska	1	Orlen
50.0652818	19.9505465	Zygmunta Augusta	1	Małopolski Ośrodek Medycyny Pracy
50.0948420	19.9512660	Siewna	28	Circle K Express
50.0812563	19.8480512	Zakliki z Mydlnik	16	FUP Kraków 23
50.0154672	20.0095678	Leonida Teligi	24	UP Kraków 38
50.0568317	19.9408365	Józefa Sarego	1	
50.0568079	19.9411545	Józefa Sarego	3	
50.0567773	19.9414334	Józefa Sarego	5	
50.0567508	19.9417267	Józefa Sarego	7	
50.0568938	19.9422616	Józefa Sarego	12	
50.0567015	19.9422576	Józefa Sarego	11	
50.0569371	19.9417625	Józefa Sarego	8	
50.0571859	19.9414897	Józefa Sarego	6	
50.0569944	19.9411474	Józefa Sarego	4	
50.0570295	19.9407860	Józefa Sarego	2	
50.0571873	19.9421630	Józefa Sarego	10	Mundo
50.0611316	19.9414639	Świętego Krzyża	4	Re
50.0514718	19.9417621	Krakowska	1	Gemini
50.0528743	19.9400451	Stradomska	15	Apteka Słoneczna
50.0542685	19.9395773	Świętej Gertrudy	24	Klinika Janeczko - medycyna estetyczna i dermatologia
50.0523823	19.9448611	Estery	3	Esterka
50.0503615	19.9488582	Świętego Wawrzyńca	18	Duffy's Irish Bar
50.0517173	19.9447786	Plac Nowy	4b	Bar Na Maxa
50.0532445	19.9490650	Starowiślna	56	Urząd Pocztowy Kraków 46
50.0658977	19.9304650	Karmelicka	23	Dr. Max
50.0632264	19.9403302	Floriańska	25	Muzeum Farmacji UJ
50.0575043	19.9366963	Senacka	2	Muzeum Geologiczne PAN
50.0556310	19.9367935	Kanonicza	25	Dom Długosza
50.0555407	19.9367061	Kanonicza	25	Rektorat Uniwersytetu Papieskiego Jana Pawła II
50.0549444	19.9386575	Grodzka	64	Instytut Polonistyki UJ
50.0633123	19.9417875	Szpitalna	21	Dom Pod Krzyżem
50.0633496	19.9359640	Plac Szczepański	9	Kamienica Szołayskich
50.0631883	19.9265845	Skarbowa	2	Teatr Groteska
50.0554747	19.9415137	Świętego Sebastiana	9	Muzeum Przyrodnicze PAN
50.0678314	19.9506939	Aleksandra Lubomirskiego	5a	
50.0514348	19.9487043	Szeroka	24	
50.0524093	19.9487538	Szeroka	16	
50.0513734	19.9443835	Beera Meiselsa	17	Centrum Kultury Żydowskiej
50.0508571	19.9496775	Dajwór	18	Żydowskie Muzeum Galicja
50.0486624	19.9434852	Plac Wolnica	1	Muzeum Etnograficzne
50.0880206	19.9683061	Dobrego Pasterza	100	Lewiatan Market
50.0608386	19.9404420	Mały Rynek	7	
50.0612761	19.9415289	Mikołajska	5	
50.0589286	19.9367769	Plac Wszystkich Świętych	3	
50.0632353	19.9369857	Sławkowska	4	DeCafencja
50.0631902	19.9429695	Plac Świętego Ducha	3	
50.0623082	19.9349286	Jagiellońska	8	
50.0618232	19.9344567	Świętej Anny	7	Trattoria Soprano
50.0628558	19.9352200	Jagiellońska	5	Poezja Smaku
50.0626174	19.9352877	Jagiellońska	6A	Dom Aukcyjny Rempex
50.0631354	19.9357477	Szczepańska	4	Restauracja Pino
50.0636209	19.9361546	Plac Szczepański	8	Pasieka
50.0637051	19.9363771	Plac Szczepański	8	Morskie Oko
50.0640328	19.9362856	Plac Szczepański	7	Kluska na Placu
50.0641583	19.9363632	Plac Szczepański	7	Gorzko Gorzko
50.0641540	19.9358288	Plac Szczepański	6/5	Old Town Hostel
50.0635805	19.9344469	Plac Szczepański	3a	Bunkier Sztuki
50.0635273	19.9348404	Plac Szczepański	2/9	Antique Apartments
50.0634133	19.9351467	Plac Szczepański	2	Scandale Royal
50.0629066	19.9368144	Szczepańska	1	Pod Złotym Tygrysem
50.0634887	19.9347486	Szczepańska	3	The Legends
50.0631550	19.9366497	Szczepańska	3	Szczepańska Apartments
50.0631803	19.9361590	Szczepańska	5	Trzy rybki
50.0631806	19.9365572	Szczepańska	5	Hotel Stary
50.0622302	19.9361717	Rynek Główny	31	Bank Pekao
50.0623188	19.9362429	Rynek Główny	32	Restauracja Towarzyska
50.0623496	19.9362679	Rynek Główny	33	Wawel
50.0626642	19.9363010	Rynek Główny	34	Tetmajerowska
50.0626523	19.9364190	Rynek Główny	34	Hawełka
50.0608704	19.9366590	Rynek Główny	20	Magnateria
50.0619863	19.9358040	Rynek Główny	30	
50.0619715	19.9353462	Rynek Główny	29	Krawat
50.0617962	19.9355742	Rynek Główny	28	Big Bull
50.0617484	19.9355969	Rynek Główny	28	Harris Piano Jazz Bar
50.0618335	19.9355141	Rynek Główny	28	"Biuro Podróży ""Skarpa"""
50.0618139	19.9354329	Rynek Główny	28	
50.0616783	19.9355259	Rynek Główny	27	Almatur
50.0616022	19.9353977	Rynek Główny	27	Piwnica Pod Baranami
50.0611897	19.9356568	Rynek Główny	25	Międzynarodowe Centrum Kultury
50.0611223	19.9357588	Rynek Główny	25	Yummie
50.0610644	19.9361433	Rynek Główny	23	Empik
50.0610392	19.9362112	Rynek Główny	22	Sioux
50.0610080	19.9363004	Rynek Główny	22	Dominium Pizza
50.0609502	19.9364617	Rynek Główny	21	PKO BP
50.0608358	19.9368369	Rynek Główny	20	
50.0607229	19.9370307	Rynek Główny	19	Wentzl Restauracja
50.0607812	19.9369090	Rynek Główny	19	Hotel Wentzl
50.0607037	19.9370762	Rynek Główny	19	Słodki Wentzl
50.0604226	19.9373789	Rynek Główny	16	Grande Grill
50.0606131	19.9372038	Rynek Główny	17	The Spaghetti
50.0604852	19.9371499	Rynek Główny	17	Porfirion
50.0603841	19.9374073	Rynek Główny	16	Wierzynek
50.0603362	19.9374422	Rynek Główny	15	Tradycyja
50.0602182	19.9375126	Rynek Główny	14	Dom Polonii
50.0601772	19.9375352	Rynek Główny	14	
50.0601605	19.9380551	Rynek Główny	13	Klub U Louisa
50.0602858	19.9378648	Rynek Główny	13	Diesel
50.0606312	19.9380044	Rynek Główny	10	Wesele
50.0607355	19.9381497	Rynek Główny	9	Renesans
50.0608516	19.9381929	Rynek Główny	8	Klub Pod Jaszczurami
50.0608041	19.9382486	Rynek Główny	8	Teatr 38
50.0609885	19.9382855	Rynek Główny	7	Souvenirs From Cracow
50.0611479	19.9384282	Rynek Główny	6	Szara
50.0613062	19.9386360	Rynek Główny	5	
50.0614058	19.9387730	Rynek Główny	4	Hard Rock Cafe
50.0611418	19.9390342	Sienna	4	Gruzińskie Chaczapuri
50.0621648	19.9391253	Rynek Główny	47	Bank Pekao
50.0622375	19.9390000	Rynek Główny	47	Bankowa
50.0622651	19.9388086	Rynek Główny	46	The Piano Rouge
50.0622490	19.9388740	Rynek Główny	46	Pijalnia czekolady E. Wedel
50.0623085	19.9387022	Rynek Główny	45	Vintage
50.0623792	19.9384689	Rynek Główny	44	Staropolska
50.0624499	19.9383535	Rynek Główny	43	Pod Słońcem
50.0624791	19.9383733	Rynek Główny	43	Gehanowska
50.0624649	19.9381975	Rynek Główny	42	Restauracja Bonerowska
50.0625781	19.9378302	Rynek Główny	41	Restauracja Loża - Klub Aktora
50.0626768	19.9375792	Rynek Główny	39	Rząd Regionalny Kurdystanu - biuro pełnomocnika w Polsce
50.0627314	19.9376145	Rynek Główny	39	Pod Krzyżykiem
50.0627812	19.9371812	Rynek Główny	36	Muzyczna
50.0628187	19.9373366	Rynek Główny	37	Lekarska Spółdzielnia Pracy
50.0627113	19.9374057	Rynek Główny	38	Redolfi
50.0560182	19.9284264	Plac Juliusza Kossaka	1	Hotel Kossak
50.0620524	19.9358577	Szewska	2	McDonald's
50.0623304	19.9356880	Szewska	5	Frantic Club
50.0623201	19.9356875	Szewska	5	Shakers
50.0622001	19.9352038	Szewska	4	Szewska 4 Resto Bar
50.0626424	19.9348721	Szewska	13	BaniaLuka
50.0628486	19.9338577	Szewska	22	Szewska 22 Boutique
50.0617389	19.9345603	Świętej Anny	5	Milk Bar
50.0617393	19.9346308	Świętej Anny	5	Konsulat Królestwa Danii
50.0162384	19.9092738	Obozowa	64	Żabka
50.0630588	19.9368173	Sławkowska	2	"Pool Bar ""U Kacpra"""
50.0631698	19.9369505	Sławkowska	4	Darts Cafe Bar
50.0633379	19.9374505	Sławkowska	3	"Hotel Saski Krakow, Curio Collection by Hilton"
50.0636989	19.9373271	Świętego Tomasza	10	Figa z Makiem
50.0638406	19.9374851	Świętego Tomasza	12	Jazz Rock Cafe
50.0639096	19.9375955	Sławkowska	14	Jan Fejkiel Gallery
50.0639605	19.9379004	Sławkowska	11	Chicago live Music
50.0640163	19.9379537	Sławkowska	13-15	Ice Station
50.0640087	19.9408844	Floriańska	43	Beer House
50.0646564	19.9413549	Floriańska	55	McDonald's
50.0644129	19.9413500	Floriańska	53	Społem Deluxe
50.0647515	19.9410997	Floriańska	44	Lampert
50.0647065	19.9410682	Floriańska	44	Cracow City Tours
50.0646625	19.9410432	Floriańska	42	Carrefour Express
50.0646244	19.9410118	Floriańska	42	Pryzmat
50.0645821	19.9409837	Floriańska	42	Souvenirs
50.0644848	19.9409190	Floriańska	40	Karmello
50.0640085	19.9405584	Floriańska	30	Piwnica Pod Złotą Pipą
50.0639608	19.9405803	Floriańska	30	Centrum Last Minute
50.0633754	19.9405470	Floriańska	29	Tutti Frutti
50.0634971	19.9401982	Floriańska	24	Pączkarnia
50.0630658	19.9402457	Floriańska	21	Taste POLAND
50.0629752	19.9401999	Floriańska	17	Millennium Bank
50.0630042	19.9397311	Floriańska	14	Pod Różą
50.0621882	19.9395855	Floriańska	3	Jazz Club U Muniaka
50.0542553	19.9253577	Tadeusza Kościuszki	18	Antykwariat Abecadło
50.0687675	20.0123319	Centralna	40A	Shot Market
50.0719117	20.0286454	Aleja Jana Pawła II	200	Circle K
50.0642733	19.9032568	Piastowska	25a	
50.0751690	19.9975681	Aleja Jana Pawła II	37	
49.9992696	19.8952590	Profesora Bolesława Wiktora Wicherkiewicza	23B	Dbam o Zdrowie
49.9988757	19.8958284	Profesora Bolesława Wiktora Wicherkiewicza	22	FUP Kraków 11
49.9978384	19.9022360	Mieczykowa	22	
49.9991798	19.9015948	Mieczykowa	2	
49.9988726	19.9022926	Mieczykowa	4	
49.9972675	19.9013398	Mieczykowa	11	
49.9972322	19.9020879	Mieczykowa	9	
49.9986598	19.9008496	Mieczykowa	14	
49.9989384	19.9010073	Mieczykowa	12	
49.9988651	19.9012734	Mieczykowa	10	
49.9985900	19.9018976	Mieczykowa	8	
49.9984680	19.9020877	Mieczykowa	6	
49.9973747	19.9025785	Mieczykowa	7	
49.9979321	19.9026602	Mieczykowa	5	
49.9981956	19.9019034	Mieczykowa	20	
49.9982989	19.9016784	Mieczykowa	18	
49.9985800	19.9010897	Mieczykowa	16	
49.9978805	19.9013055	Mieczykowa	28	
49.9976035	19.9013198	Mieczykowa	26	
49.9975605	19.9021815	Mieczykowa	24	
49.9980026	19.9004191	Mieczykowa	15	
49.9974691	19.9004256	Mieczykowa	13	
50.0155261	20.0197039	Mieczysławy Ćwiklińskiej	10	Afrodyta
50.0155156	20.0198276	Mieczysławy Ćwiklińskiej	10	Niezapominajka
50.0161391	20.0200405	Mieczysławy Ćwiklińskiej	9	AN
50.0161743	20.0199029	Mieczysławy Ćwiklińskiej	9	Żabka
50.0125868	20.0194086	Aleksandry	11	FUP Kraków 4
50.0152562	20.0203747	Mieczysławy Ćwiklińskiej	12	
50.0197476	20.0160507	Telimeny	9	XXV Liceum Ogólnokształcące im. Stefana Żeromskiego
50.0197468	20.0166248	Telimeny	9	Szkoła Podstawowa Specjalna nr 121 im. św. Franciszka z Asyżu
50.0631939	19.9412087	Szpitalna	28	Elektor
50.0636034	19.9407569	Świętego Marka	20	Unicus Hotel
50.0937742	19.9478821	Józefa Mackiewicza	17	UP Kraków 10
50.0130369	19.9718397	Łużycka	55	Stokrotka
50.0127177	19.9723831	Łużycka	55	UP Kraków 19
50.0183178	19.9829076	Na Kozłówce	10\	
50.0182986	19.9828187	Na Kozłówce	10	Stokrotka
50.0181453	19.9825177	Okólna	4	UP Kraków 47
50.0634157	19.9290713	Krupnicza	20	Dynia
50.0597683	19.9263137	Marszałka Józefa Piłsudskiego	27	Garage Pub
50.0615952	19.9277589	Plac Generała Władysława Sikorskiego	1	Pod Kopytkiem
50.0547655	19.9289332	Bulwar Czerwieński	81	Aquarius - restaurant & cocktail bar
50.0818950	19.9676568	Stanisława ze Skalbmierza	7	
50.0521471	19.9449342	Estery	5	Alchemia
50.0214931	19.8887992	Leona Henryka Sternbacha	1	Centrum Medicover Czerwone Maki
50.0176497	19.8930874	Profesora Michała Bobrzyńskiego	37	Euronet
50.0188480	19.8968566	Chmieleniec	2B	Rękoczyny Cafe & Bakery
50.0581072	19.9462218	Józefa Dietla	90	
50.0562601	19.9445281	Józefa Sarego	28	
50.0556492	19.9404673	Świętego Sebastiana	1	
50.0554987	19.9439785	Świętego Sebastiana	24	
50.0578468	19.9459977	Józefa Dietla	86	
50.0416506	20.0039281	Golikówka	6b	"Zakład Obróbki Metalu ""Detal"""
50.0787087	19.9714710	Pilotów	37	Bankomat Millennium
50.0559589	19.9455162	Józefa Dietla	87	
50.0550940	19.9448138	Józefa Dietla	77	
50.0730685	19.9139180	Kronikarza Galla	15	
50.0684059	20.0132604	Centralna	41	Amavet
50.0661278	20.0182422	Sołtysowska	25B	Orient
50.0688220	20.0175784	Woźniców	17A	
50.0700073	20.0175908	Śliwkowa	12	
50.0690321	20.0182842	Woźniców	22A	
50.0696235	20.0174280	Śliwkowa	20	
50.0688210	20.0176902	Woźniców	17	
50.0697161	20.0174782	Śliwkowa	18	
50.0690426	20.0181177	Woźniców	22	
50.0698180	20.0175105	Śliwkowa	16	
50.0699081	20.0175546	Śliwkowa	14	
50.0439773	19.9471726	Legionów Józefa Piłsudskiego	13	Millennium Bank
50.0714118	19.9404370	Szlak	50	Millennium Bank
50.0837883	19.9344093	Bratysławska	2	
50.0664569	19.9400248	Rynek Kleparski	4	Millennium Bank
50.0492958	19.9257947	Michała Bałuckiego	9	Bankomat Cash4You
50.0147996	19.9316997	Zakopiańska	62	Bankomat Cash4You
50.0440258	19.9472531	Legionów Józefa Piłsudskiego	13	Bankomat Millennium
50.0570348	19.9301831	Zwierzyniecka	24	Millennium Bank
50.0675746	19.8470894	Chełmska	15	Bankomat Santander
50.0570525	19.9302041	Zwierzyniecka	26	Bankomat Millennium
50.0638749	19.9327861	Karmelicka	3	Be Happy! Sweet art and illusion museum
50.0892145	19.9829286	Dobrego Pasterza	126	
50.0610000	19.9442000	Westerplatte	15/16	Bankomat BZ WBK
50.0570070	19.9302171	Zwierzyniecka	26	Bankomat Millennium
50.0301169	19.9116465	Norymberska	1	Bankomat Cash4You
50.0333484	19.9706373	Wielicka	72	Santander
50.0083298	19.9534780	Marii i Bolesława Wysłouchów	27	Bankomat Cash4You
50.0891141	19.9303837	Krowoderskich Zuchów	12	Bankomat BZ WBK
50.0664782	19.9400295	Rynek Kleparski	4	Bankomat Millennium
50.0148000	19.9317000	Zakopiańska	62	Bankomat BZ WBK
50.0624641	19.9609175	Aleja Powstania Warszawskiego	12	Millennium Bank
50.0624511	19.9608820	Aleja Powstania Warszawskiego	12	Euronet
50.0115000	19.9631000	Wincentego Witosa	7 (ATM 2)	Bankomat Cash4You
50.0977882	19.9593012	Kuźnicy Kołłątajowskiej	13	Lewiatan
50.0978192	19.9591724	Kuźnicy Kołłątajowskiej	13	
50.0628043	19.9401801	Floriańska	17	Euronet
50.0932358	19.9469236	Józefa Mackiewicza	15	Szkoła Podstawowa nr 109 im. Kornela Makuszyńskiego
50.0933437	19.9464121	Józefa Mackiewicza	15	Samorządowe Przedszkole nr 30
50.0511048	19.9915039	Nowohucka	33a	
50.0511973	19.9905331	Nowohucka	33	Hotel Junior Krakus
50.0501991	19.9903488	Koszykarska	33	Unibase prywatny akademik
50.0508237	19.9899640	Nowohucka	35	Hotel Krakus
50.0480520	19.9880415	Księdza Wincentego Turka	17	
50.0454513	20.0001574	Myśliwska	78	UP Kraków 52
50.0609545	20.0244851	Sołtysowska	43a	
50.0610316	20.0244671	Sołtysowska	43	
50.0517752	19.9448173	Plac Nowy	4B	Mini Bar Endzior
50.0511207	19.9469635	Józefa	21	
50.0556639	19.9571231	Semperitowców	5	
50.0556389	19.9572924	Semperitowców	7	
50.0556125	19.9574716	Semperitowców	7a	
50.0559931	19.9572847	Semperitowców	6	
50.0559545	19.9575408	Semperitowców	8	
50.0714350	20.0344589	Aleja Jana Pawła II	232	Max Grill
50.0117535	19.9628779	Wincentego Witosa	7	
50.0576865	19.9491041	Al. Ignacego Daszyńskiego	3	Gemini
50.0072473	20.0120853	Rafała Czerwiakowskiego	6	Za furtką
50.0710226	19.9147948	Aleja Kijowska	10	Hygieia
50.0462364	19.9541481	Plac Bohaterów Getta	18	Apteka Pod Orłem
50.0550985	19.9545950	Masarska	3/8	Germania
50.0507876	19.9474500	Wąska	5	
50.0504314	19.9476088	Wąska	7	
50.0502904	19.9485371	Świętego Wawrzyńca	16	
50.0507998	19.9477080	Wąska	4	
50.0511637	19.9466132	Józefa	30	
50.0512138	19.9468741	Józefa	34	
50.0503570	19.9489875	Świętego Wawrzyńca	18	
50.0657498	19.9447995	Pawia	12/7	Greg & Tom Hostel
50.0129598	19.9505279	Porucznika Jerzego Halszki	3A	Euronet
50.0709922	19.9001607	Armii Krajowej	10	Circle K
50.0332187	19.9393586	Wadowicka	6	Życzliwa Apteka
50.0559631	19.9461017	Starowiślna	28	Galen
50.0973739	19.9592667	Kuźnicy Kołłątajowskiej	13	UP Kraków 70
50.0264036	19.9118498	Kobierzyńska	93	Urząd Pocztowy Kraków 11
50.0181888	19.9852090	Na Kozłówce	18	Lewiatan
50.0080910	19.9488050	Porucznika Jerzego Halszki	29	Curry & Tandoor House
50.0938768	20.0323638	Zakładowa	3A	Zajazd Szlachecki
50.0531511	19.9433172	Józefa Dietla	55	Lala Seoul
50.0687933	20.0551229	Tadeusza Ptaszyckiego	9	Szkoła Podstawowa Specjalna nr 79
50.0688013	20.0554866	Tadeusza Ptaszyckiego	9	Szkoła Specjalna Przysposabiająca do Pracy nr 7
50.0843456	19.9638030	Bosaków	11	FUP Kraków 73
50.0073552	19.8967699	Zawiła	65A	ARTUS
50.0321212	19.9224354	Kobierzyńska	23a	Pizza Accanto
50.0169734	19.8980125	Chmieleniec	39	Filia Urzędu Pocztowego Kraków 11
50.0140461	19.8973881	Skośna	2	Przedszkole Samorządowe nr 58
50.0144459	19.8902483	Doktora Jana Piltza	43	Groszek
50.0868673	19.9256749	Rusznikarska	14A	Żabka
50.0284656	19.9170234	Zygmunta Miłkowskiego	21	Klinika Piękna
50.0265963	19.9145075	Ruczaj	62a	Fitness Klub
50.0330006	19.9369943	Rzemieślnicza	1 pok. 805	
50.0567973	19.9576594	Rzeźnicza	4	Technikum Ekonomiczne i Elektroniczne nr 23
50.0567842	19.9570343	Rzeźnicza	4	XXII Liceum Profilowane
50.0567461	19.9572915	Rzeźnicza	4	Zasadnicza Szkoła Zawodowa nr 24
50.0690774	20.0139011	Centralna	39	
50.0534428	20.0385365	Niepokalanej Marii Panny	111b	BMW Misiak
50.0884733	20.0805499	Mrozowa	31	
50.0800519	20.0665512	Ujastek	1	
50.0846738	20.0726569	Mrozowa	5	
50.0870186	20.0776514	Mrozowa	20a	
50.0792466	20.0682518	Ujastek	1	ArcelorMittal oddział Kraków (Huta im. Tadeusza Sendzimira)
50.0865084	20.0764992	Mrozowa	9	
50.0879586	20.0792480	Mrozowa	20b	
50.0635377	20.0075296	Centralna	53	
50.0669441	20.0065830	Na Łąkach	18	Naprawa chłodnic
50.0078555	19.9586315	Marii i Bolesława Wysłouchów	22A	Pozytywny Żłobek nr 3
50.0284151	19.9495212	Generała Henryka Kamieńskiego	11	
50.0878361	19.9814586	Generała Tadeusza Bora-Komorowskiego	37	Auchan
50.0734642	19.9148828	Królewska	59	Biblioteka Kraków Filia 21
50.0729414	19.9802515	Janusza Meissnera	30	Delikatesy Podwawelskie
50.0723281	19.9806212	Śliczna	3	Bąk Aneta. Salon fryzjerski
50.0855901	19.9684886	Olszecka	41	
50.0799773	19.9382884	Prądnicka	40	vipmyjnia
50.0799122	19.8710811	Samuela Bogumiła Lindego	22	Dom noclegowy
50.0663052	19.9724598	Mogilska	81	Circle K
50.0264741	19.9300400	Odrzańska	9	Gabinet weterynaryjny
50.0244535	19.9336273	Zakopiańska	33B	
50.0246524	19.9337341	Zakopiańska	33A	
50.0594822	19.9351670	Franciszkańska	3	Okno Papieskie
50.0723146	19.9809767	Śliczna	1	Piekarnia Kurek
50.0722749	19.9172676	Królewska	82	Bank Ochrony Środowiska S.A
50.0764982	19.9263450	Litewska	13	Mega Pizza
50.0761389	19.9281138	Wrocławska	28	Metaforma
50.0760303	19.9281848	Wrocławska	28	Biedronka
50.0641957	19.9420566	Szpitalna	38	U Babci Maliny
50.0619960	19.9377745	Rynek Główny	1	Rynek Podziemny
50.0585669	19.9450023	Wielopole	16	
50.0586375	19.9458495	Wielopole	15	Hair Line
50.0490198	19.9257070	Zagrody	1	
50.0667673	19.9288747	Piotra Michałowskiego	1	Inter Lang & Text English and German School
50.0844088	19.9449087	Ludwika Solskiego	1	FUP Kraków 73
50.0670544	19.9588060	Mogilska	18	Laseri
50.0593232	19.9420765	Starowiślna	1	Niezapominajka
50.0587887	19.9437662	Wielopole	5	
50.0584719	19.9445997	Wielopole	13	Kantor
50.0575497	19.9453270	Józefa Dietla	80/82	Biblioteka Kraków Filia 1
50.0588202	19.9436796	Wielopole	5	Eland
50.0236007	19.9287566	Do Wilgi	24	
50.0602021	19.9380055	Rynek Główny	13	Pasaż 13
50.0604414	19.9379357	Rynek Główny	13	Pajaro
50.0416379	20.0038362	Golikówka	6b	
49.9975264	19.8993836	Profesora Wojciecha Marii Bartla	19f	
49.9977990	19.8976914	Profesora Wojciecha Marii Bartla	19	
49.9978240	19.8996621	Profesora Wojciecha Marii Bartla	19c	
49.9980379	19.8989000	Profesora Wojciecha Marii Bartla	19b	
49.9978148	19.8981696	Profesora Wojciecha Marii Bartla	19a	
50.0545092	19.9393285	Świętej Gertrudy	26	Royal
50.0000459	19.9123803	Zawiszy	10	Pizzeria Kliny
50.0990236	19.9647139	Księdza Józefa Meiera	20B	Lewiatan
50.0273417	19.9636047	Generała Henryka Kamieńskiego	47	Bank Spółdzielczy w Limanowej
50.0733097	19.9343934	Aleja Juliusza Słowackiego	45	
50.0691110	19.9304941	Henryka Siemiradzkiego	18a	U Moniki
50.0690885	19.9304527	Henryka Siemiradzkiego	18a	
50.0730840	19.9336733	Aleja Juliusza Słowackiego	39	
50.0732516	19.9345935	Długa	88	
50.0693031	19.9300897	Henryka Siemiradzkiego	17	"Klub bilardowy ""Atut"""
50.0729244	19.9330714	Aleja Juliusza Słowackiego	37	
50.0692847	19.9291251	Henryka Siemiradzkiego	25	
50.0692234	19.9310273	Henryka Siemiradzkiego	11	
50.0725166	19.9352035	Długa	80	
50.0693072	19.9289946	Henryka Siemiradzkiego	25	Sortmund
50.0690584	19.9327344	Henryka Siemiradzkiego	2	
50.0727538	19.9349034	Jerzego Żuławskiego	1	
50.0688244	19.9320095	Henryka Siemiradzkiego	8	
50.0690216	19.9316101	Henryka Siemiradzkiego	12	
50.0692456	19.9285380	Teofila Lenartowicza	2	
50.0725036	19.9343128	Jerzego Żuławskiego	5	
50.0693092	19.9298828	Henryka Siemiradzkiego	19	Gabinet lekarski
50.0726426	19.9341626	Jerzego Żuławskiego	7	
50.0725140	19.9350539	Jerzego Żuławskiego	4	
50.0690525	19.9325079	Henryka Siemiradzkiego	4	
50.0688674	19.9318387	Henryka Siemiradzkiego	10	
50.0700949	19.9279766	Teofila Lenartowicza	13	Dentalking
50.0728911	19.9336987	Jerzego Żuławskiego	11	
50.0728588	19.9332232	Jerzego Żuławskiego	18	
50.0727757	19.9350225	Długa	82	
50.0709828	19.9301734	Łobzowska	40	mbike
50.0706204	19.9335764	Szlak	8a	
50.0708924	19.9341528	Krowoderska	46	
50.0710773	19.9346234	Krowoderska	61	
50.0722231	19.9315061	Aleja Juliusza Słowackiego	25	
50.0704419	19.9323570	Łobzowska	47	
50.0706313	19.9334747	Stanisława Staszica	1	
50.0704735	19.9331725	Szlak	8	
50.0712814	19.9329812	Stanisława Staszica	11	
50.0708140	19.9340816	Szlak	12	
50.0707781	19.9349624	Krowoderska	59	
50.0705851	19.9346172	Krowoderska	44	
50.0702003	19.9326011	Szlak	2	
50.0705585	19.9331897	Stanisława Staszica	2	
50.0702504	19.9325095	Łobzowska	45	
50.0713601	19.9331571	Świętej Teresy	3	
50.0708270	19.9350370	Szlak	15	
50.0712854	19.9383512	Szlak	41	
50.0719669	19.9357220	Długa	72	
50.0712029	19.9388844	Pędzichów	22	
50.0713066	19.9364814	Szlak	27	
50.0696351	19.9376978	Długa	31	
50.0711246	19.9361173	Długa	64	Miss
50.0699391	19.9386051	Pędzichów	7	
50.0696071	19.9379972	Pędzichów	2	
50.0714997	19.9395363	Szlak	40	
50.0692003	19.9382430	Długa	29	
50.0715505	19.9363940	Szlak	20	Dreamlike
50.0710908	19.9392560	Pędzichów	23	
50.0695490	19.9383464	Pędzichów	5	Komisariat Policji I w Krakowie
50.0722061	19.9361042	Długa	65	
50.0721061	19.9391607	Pędzichów	28	
50.0712571	19.9394004	Szlak	47	
50.0720227	19.9394716	Pędzichów	27	
50.0716174	19.9390987	Pędzichów	22a	
50.0715506	19.9364283	Szlak	20	Centrum Nauczania Domowego
50.0693581	19.9382559	Pędzichów	3	
50.0716491	19.9394069	Pędzichów	25	
50.0715672	19.9370503	Szlak	24	
50.0713368	19.9388399	Szlak	45	
50.0689212	19.9313328	Henryka Siemiradzkiego	14	
50.0702178	19.9326620	Szlak	2	KAEM Serwis GSM
50.0711988	19.9326111	Stanisława Staszica	14	
50.0711727	19.9325287	Świętej Teresy	3	
50.0640574	19.9276230	Dolnych Młynów	4	
50.0654211	19.9271022	Czarnowiejska	3	
50.0639370	19.9275180	Czysta	1	
50.0639478	19.9269087	Czysta	5	"Apteka ""Czysta 5"""
50.0655689	19.9249947	Czarnowiejska	8	Lunch bar
50.0636550	19.9241694	Aleja Adama Mickiewicza	17	
50.0629459	19.9263616	Krupnicza	29	
50.0632612	19.9278782	Krupnicza	30	
50.0705075	19.9332583	Szlak	8	Edan Artykuły konserwatorskie
50.0893653	20.0390313	Kornela Makuszyńskiego	26	Moya
50.0123449	19.9456515	Chmielna	18A	Martello
50.0146678	19.9323825	Zakopiańska	62	
50.0428944	19.9686759	Powstańców Wielkopolskich	18	Biedronka
50.0443028	19.9729869	Szklarska	7	"Studio urody ""Warsztat"""
50.0864191	20.0595109	Wąwozowa	34	
50.0083360	19.9269756	Osiedle Zaułek Jugowicki	19	
50.0137457	19.9162581	Jagodowa	12	
50.0144121	19.9168972	Kępna	3	
50.0142552	19.9159618	Jagodowa	4	
50.0145391	19.9168039	Żywiecka	46	
50.0143479	19.9160127	Żywiecka	48	
50.0139758	19.9171795	Kępna	9	
50.0302947	19.9090056	Profesora Stanisława Łojasiewicza	4	Biblioteka Wydziału Zarządzania i Komunikacji Społecznej Uniwersytetu Jagiellońskiego
50.0665581	19.8924965	Mydlnicka	73	"Klub Jazdy Konnej ""KLAN"""
50.0324916	19.9207859	Kobierzyńska	47	Sympozjum
50.0272049	19.9313039	Koszalińska	12	La Salette Duszpasterstwo Pielgrzymkowe
50.0274020	19.9280320	Borsucza	16A	Decoupageria
50.0276476	19.9306482	Kołobrzeska	10	"Clear Finance - Kredyty firmowe, pożyczki firmowe"
50.0288856	19.9309745	Kędzierzyńska	2	Automechanika
50.0291605	19.9298593	Kędzierzyńska	8	Fachowa Auto Blacharka
50.0280433	19.9294920	Nowotarska	8	Ice Service Piotr Małek
50.0283654	19.9296145	Zielonogórska	12	UNISOFT
50.0970186	19.9386723	Kazimierza Herwina-Piątka	20	
50.0965971	19.9386541	Kazimierza Herwina-Piątka	26	
50.0727599	20.0102995	Narciarska	2E	
50.0724204	20.0121421	Konstantego Ildefonsa Gałczyńskiego	5	
50.0723754	20.0119464	Konstantego Ildefonsa Gałczyńskiego	5A	
50.0289334	19.9315241	Karola Bogdanowicza	7	
50.0288174	19.9315527	Plac Łagiewnicki	3	
50.0739011	19.9754656	Śliczna	30	Gabinet StomatologicznyAgata Szarżanowicz-Płyś
50.0649521	19.9060450	Olimpijska	2	
50.0651123	19.9064222	Daniela Chodowieckiego	24	
50.0471151	19.9409261	Hieronima Wietora	2	
50.0733777	19.9968902	Aleja Jana Pawła II	70	
50.0644564	20.0012801	Aleja Pokoju	67	Poczta Polska
50.0645988	20.0015731	Aleja Pokoju	67	
50.0641406	19.9974917	Aleja Pokoju	67	Euronet
50.0646683	20.0017044	Aleja Pokoju	67	Euronet
50.0840310	19.9423425	Feliksa Konecznego	8	
50.0839861	19.9466273	Stefana Jaracza	1	
50.0867403	19.9440128	Mikołaja Reja	11	
50.0862193	19.9457339	Ludwika Solskiego	13	
50.0858090	19.9434978	Mikołaja Reja	15	
50.0854762	19.9440176	Mikołaja Reja	17	
50.0851142	19.9435925	Mikołaja Reja	19	
50.0835003	19.9458362	Feliksa Konecznego	2	
50.0846939	19.9426438	Stefana Jaracza	26	
50.0847727	19.9421994	Stefana Jaracza	34	
50.0839281	19.9446169	Feliksa Konecznego	4	
50.0853991	19.9446051	Ludwika Solskiego	5	
50.0841400	19.9434025	Feliksa Konecznego	6	
50.0852858	19.9455161	Ludwika Solskiego	7	
50.0848980	19.9457337	Ludwika Solskiego	8	
50.0859199	19.9450744	Ludwika Solskiego	9	
50.0839127	19.9459023	Stefana Jaracza	9	
50.0865108	19.9473209	Żabiniec	5	
50.0848086	19.9468950	Żabiniec	41	
50.0858362	19.9460792	Ludwika Solskiego	7A	
50.0859126	19.9460909	Ludwika Solskiego	7B	
50.0858763	19.9457569	Ludwika Solskiego	7C	
50.0860488	19.9472149	Żabiniec	15	
50.0986237	20.0917826	Łuczanowicka	21	Dworek Krakowski
50.0865153	19.9407284	Księdza Kazimierza Siemaszki	31	
50.0839701	19.9381981	Prądnicka	41	
50.0855773	19.9384635	Prądnicka	61	
50.0301847	19.9305107	Jana Brożka	24b	
50.0297207	19.9305481	Jana Brożka	24a	
50.0185044	19.9070609	Torfowa	5	Niepubliczny Zakład Opieki Zdrowotnej Praktyka Lekarza Rodzinnego
50.0446178	19.9508310	Bolesława Limanowskiego	4	UP Kraków 77
50.0453536	19.9494671	Rynek Podgórski	14	
50.0435862	19.9464219	Kalwaryjska	14	Apteka Niezapominajka
50.0454063	19.9478084	Kazimierza Brodzińskiego	3	Me Thai
50.0458581	19.9505373	Józefińska	14	Miejski Ośrodek Pomocy Społecznej
50.0449312	19.9529387	Bolesława Limanowskiego	16	Bar mleczny Krakus
50.0446373	19.9484281	Rynek Podgórski	11	Luktung
50.0461728	19.9492220	Nadwiślańska	1	Drukarnia
50.0459891	19.9492311	Nadwiślańska	1	Cawa Cafe & Wine
50.0625744	19.9768261	Zwycięstwa	18	
50.0626412	19.9763256	Zwycięstwa	21	
50.0632608	19.9780435	Zwycięstwa	3	
50.0587985	19.9758208	Aleja Pokoju	33	Urząd Pocztowy Kraków 49
50.0570502	19.9189038	Filarecka	26	Biblioteka Kraków Filia 25
50.0908748	19.9266944	Opolska	37	Biblioteka Kraków Filia 20
50.0868507	19.9399589	Księdza Kazimierza Siemaszki	40	
50.0781413	19.9236341	Wrocławska	50	
50.0876557	19.9399229	Księdza Kazimierza Siemaszki	52	
50.0945304	19.8822588	Ojcowska	27	Biblioteka Kraków Filia 17
50.0549099	19.9094939	Królowej Jadwigi	37b	Biblioteka Kraków Filia 27
50.1121259	19.8994229	Władysława Łokietka	267	Biblioteka Kraków Filia 19
50.0540708	19.9203914	Bolesława Komorowskiego	11	Biblioteka Kraków Filia 26
50.0700933	19.9256764	Henryka Sienkiewicza	2	Biblioteka Kraków Filia 22
50.0854230	19.8441460	Balicka	297	Biblioteka Kraków Filia 23
50.0781015	19.8851235	Na Błonie	13D	Biblioteka Kraków Filia 24
50.0153000	20.0095831	Leonida Teligi	24	
50.0141170	19.9179187	Żywiecka	32	Biblioteka Kraków Filia 32
50.0448486	19.9503640	Bolesława Limanowskiego	4	Biblioteka Kraków Filia 46
50.0519954	19.9295995	Powroźnicza	2	Biblioteka Główna
50.0185195	19.9815103	Spółdzielców	3	Biblioteka Kraków Filia 44
50.0152784	20.0087741	Leonida Teligi	24	Biblioteka Kraków Filia 45
50.0128756	19.9723572	Łużycka	55	Biblioteka Kraków Filia 40
50.0237870	19.9917499	Generała Jakuba Jasińskiego	32	Biblioteka Kraków Filia 43
50.0276061	19.9297904	Borsucza	12	Biblioteka Kraków Filia 34
50.0229976	19.9083060	Zachodnia	7/3a	Punkt biblioteczny filii 31
50.0146222	19.9537580	Gołaśka	13/1	Biblioteka Kraków Filia 41
50.0456516	19.9309030	Komandosów	1	Biblioteka Kraków Filia 28
50.0242313	19.9595690	Walerego Sławka	10	Biblioteka Kraków Filia 38
49.9800569	19.9551568	Henryka Niewodniczańskiego	123	Biblioteka Kraków Filia 36
50.0180517	19.8070766	Dziewiarzy	7	Biblioteka Kraków Filia 30
50.0125073	19.9532246	Porucznika Jerzego Halszki	1	Biblioteka Kraków Filia 39
50.0574771	19.9383166	Grodzka	50	Dedalus Skład Tanich Książek
50.0734569	20.0149186	Aleja Jana Pawła II	180	
50.0614387	19.9408145	Mały Rynek	1	
50.0614174	19.9409901	Mikołajska	1	
50.0612662	19.9407557	Mały Rynek	2	
50.0612161	19.9407222	Mały Rynek	3	
50.0611521	19.9406120	Mały Rynek	4	
50.0609556	19.9405371	Mały Rynek	6	
50.0611052	19.9405888	Mały Rynek	4	CUD Ciało Umysł Duch
50.0610960	19.9406326	Mały Rynek	4	Cafe Albo Tak
50.0612830	19.9406908	Mały Rynek	2	India Masala Kraków
50.0618307	19.9406646	Szpitalna	1	
50.0615416	19.9412760	Mikołajska	10	
50.0617648	19.9420301	Świętego Krzyża	10	
50.0614998	19.9413904	Mikołajska	12	
50.0619397	19.9421592	Świętego Krzyża	12	
50.0614587	19.9414863	Mikołajska	14	
50.0614216	19.9416009	Mikołajska	16	
50.0613947	19.9417396	Mikołajska	18	
50.0617005	19.9406830	Mikołajska	2	
50.0622947	19.9413830	Świętego Tomasza	25	
50.0622466	19.9415744	Świętego Tomasza	27	
50.0620737	19.9408643	Szpitalna	3	
50.0621481	19.9419453	Świętego Tomasza	31	
50.0620619	19.9421492	Świętego Tomasza	33	
50.0616423	19.9409099	Mikołajska	4	
50.0621392	19.9409106	Szpitalna	5	
50.0615926	19.9410789	Mikołajska	6	
50.0614346	19.9418097	Świętego Krzyża	6	
50.0622307	19.9409751	Szpitalna	7	
50.0615578	19.9411804	Mikołajska	8	
50.0615756	19.9419427	Świętego Krzyża	8	
50.0623460	19.9410370	Szpitalna	9	
50.0616883	19.9407670	Mikołajska	2	Krakowskie Forum Kultury
50.0175195	19.8970767	Chmieleniec	16/6	Krakowskie Studio Formy
50.0625902	19.9412058	Szpitalna	11	
50.0623266	19.9424663	Świętego Krzyża	14	
50.0627255	19.9427888	Świętego Krzyża	16	
50.0630330	19.9415275	Szpitalna	17	
50.0631324	19.9415816	Szpitalna	19	
50.0629091	19.9431743	Świętego Krzyża	21	
50.0624734	19.9412654	Świętego Tomasza	22	
50.0632211	19.9417824	Świętego Marka	24	
50.0630986	19.9418461	Świętego Marka	25	
50.0623482	19.9418225	Świętego Tomasza	26	
50.0630055	19.9420586	Świętego Marka	27	
50.0622262	19.9422027	Świętego Tomasza	28	
50.0629486	19.9422424	Świętego Marka	29	
50.0628825	19.9424839	Świętego Marka	31	
50.0626922	19.9430978	Świętego Marka	33	
50.0619244	19.9431644	Świętego Tomasza	34	Hotel Campanile
50.0620213	19.9427845	Świętego Tomasza	32	Hotel Classic
50.0621939	19.9426231	Świętego Krzyża	15	
50.0623505	19.9427577	Świętego Krzyża	17	
50.0624923	19.9428524	Świętego Krzyża	19	
50.0621065	19.9426445	Świętego Tomasza	30	Café Filo
50.0620537	19.9428046	Świętego Tomasza	32	
50.0619602	19.9430877	Świętego Tomasza	34	
50.0626257	19.9433348	Świętego Marka	35	
50.0625476	19.9435667	Świętego Marka	37	
50.0617528	19.9422627	Świętego Krzyża	11	
50.0618793	19.9423547	Świętego Krzyża	13	
50.0615014	19.9421227	Mikołajska	20	
50.0615341	19.9424240	Mikołajska	24	
50.0615216	19.9425656	Mikołajska	26	
50.0615241	19.9426730	Mikołajska	28	
50.0614997	19.9428726	Mikołajska	30	
50.0619803	19.9424591	Świętego Tomasza	35	
50.0618966	19.9427254	Świętego Tomasza	37	
50.0618616	19.9428758	Świętego Tomasza	39	
50.0618022	19.9430188	Świętego Tomasza	41	
50.0617211	19.9432253	Świętego Tomasza	43	
50.0606951	19.9416113	Świętego Krzyża	1	
50.0613830	19.9427949	Mikołajska	17	
50.0613633	19.9429488	Mikołajska	19	
50.0606043	19.9418510	Na Gródku	1	
50.0612327	19.9432078	Mikołajska	21	
50.0607860	19.9423301	Na Gródku	3	
50.0608386	19.9416811	Świętego Krzyża	3	
50.0610003	19.9417479	Świętego Krzyża	5	
50.0611732	19.9418436	Świętego Krzyża	7	
50.0613149	19.9421060	Mikołajska	9	
50.0560885	19.9371042	Kanonicza	19	Muzeum Archidiecezjalne
50.0562705	19.9375835	Kanonicza	16	Hotel Copernicus
50.0611930	19.9387830	Sienna	2	
50.0610968	19.9390916	Sienna	4	
50.0614256	19.9400293	Mały Rynek	5	
50.0614844	19.9402507	Mały Rynek	11	
50.0610382	19.9392957	Sienna	6	
50.0613520	19.9399812	Plac Mariacki	6	
50.0612784	19.9394591	Plac Mariacki	7	
50.0609589	19.9395632	Mały Rynek	8a	
50.0612760	19.9391805	Plac Mariacki	8	
50.0613393	19.9390177	Plac Mariacki	9	
50.0621261	19.9393927	Floriańska	1	
50.0620404	19.9396203	Plac Mariacki	1	
50.0622556	19.9407141	Szpitalna	10	
50.0625218	19.9397131	Floriańska	11	
50.0623517	19.9408035	Szpitalna	12	
50.0624365	19.9408780	Szpitalna	14	
50.0627426	19.9398622	Floriańska	15	
50.0618772	19.9404296	Szpitalna	2	
50.0619535	19.9399127	Plac Mariacki	2	
50.0626777	19.9402407	Świętego Tomasza	21	
50.0625373	19.9405486	Świętego Tomasza	23	
50.0621879	19.9394607	Floriańska	3	
50.0618821	19.9400933	Plac Mariacki	3	
50.0620118	19.9405074	Szpitalna	4	
50.0618212	19.9403052	Plac Mariacki	4	
50.0622824	19.9395522	Floriańska	5	
50.0621103	19.9405597	Szpitalna	6	
50.0623658	19.9396234	Floriańska	7	
50.0621640	19.9406416	Szpitalna	8	
50.0624544	19.9396789	Floriańska	9	
50.0698724	19.9327209	Łobzowska	43	
50.0703800	19.9338101	Szlak	7	
50.0675129	19.9341127	Łobzowska	11	
50.0565862	19.9321221	Plac Na Groblach	6	
50.0710601	19.9278890	Aleja Juliusza Słowackiego	18a	
50.0706663	19.9270923	Teofila Lenartowicza	17	
50.0709811	19.9265544	Henryka Sienkiewicza	11	
50.0711933	19.9278531	Łobzowska	44	
50.0563351	19.9279545	Plac Juliusza Kossaka	3	
50.0560671	19.9283331	Plac Juliusza Kossaka	1	
50.0560686	19.9274093	Aleja Zygmunta Krasińskiego	5	
50.0928557	19.9224911	Kazimierza Wyki	10A	"Groomer.com.pl, Groomer"
50.0917343	19.9200098	Kazimierza Wyki	3	Jednostka Ratowniczo-Gaśnicza PSP nr 5 w Krakowie
50.0150077	20.0209442	Mieczysławy Ćwiklińskiej	12	Carrefour
50.0696809	19.9616493	Józefa Brodowicza	6	PPHIU RAVIS
50.0336609	19.9712973	Wielicka	72	Filia Urzędu Pocztowego Kraków 4
50.0330235	19.9712812	Wielicka	76	Na Wielickiej
50.0321395	19.9727730	Wielicka	76B	"Przedszkole Samorządowe nr 129 - ""Skrzaty"""
50.0340947	19.9727366	Dworcowa	12	
50.0303964	19.9692706	Siemomysła	42	
50.0307601	19.9692075	Siemomysła	32	
50.0308341	19.9692062	Siemomysła	30	
50.0312970	19.9691638	Siemomysła	18	
50.0313369	19.9691538	Siemomysła	16	
50.0310471	19.9691714	Siemomysła	24	
50.0311298	19.9691526	Siemomysła	22	
50.0304358	19.9692678	Siemomysła	40	
50.0308752	19.9691954	Siemomysła	28	
50.0310023	19.9691667	Siemomysła	26	
50.0305168	19.9692597	Siemomysła	38	
50.0307063	19.9692122	Siemomysła	34	
50.0305667	19.9692514	Siemomysła	36	
50.0311754	19.9691539	Siemomysła	20	
50.0311399	19.9696205	Siemomysła	13	
50.0312225	19.9696554	Siemomysła	11	
50.0310486	19.9696741	Siemomysła	15	
50.0268640	19.9747867	Malborska	10	
50.0290522	19.9672819	Stoigniewa	34	
50.0284906	19.9658603	Stoigniewa	2	
50.0286524	19.9664289	Stoigniewa	16	
50.0285491	19.9659568	Stoigniewa	4	
50.0273536	19.9738155	Tarnowska	8	
50.0267744	19.9745399	Malborska	12	
50.0277256	19.9674321	Pańska	19b	
50.0290200	19.9672238	Stoigniewa	32	
50.0287041	19.9665845	Stoigniewa	20	
50.0287284	19.9666757	Stoigniewa	22	
50.0286933	19.9665066	Stoigniewa	18	
50.0270777	19.9720294	Alfreda Dauna	15a	
50.0291872	19.9677707	Stoigniewa	46	
50.0285975	19.9660910	Stoigniewa	8	
50.0276255	19.9704415	Łuczników	6a	
50.0289677	19.9670784	Stoigniewa	28	
50.0308575	19.9697004	Siemomysła	17	
50.0286423	19.9662519	Stoigniewa	12	
50.0289456	19.9670078	Stoigniewa	26	
50.0307749	19.9697064	Siemomysła	19	
50.0290781	19.9673625	Stoigniewa	36	
50.0291065	19.9675378	Stoigniewa	40	
50.0276496	19.9705327	Łuczników	6	
50.0291013	19.9674390	Stoigniewa	38	
50.0277566	19.9675233	Pańska	19a	
50.0286423	19.9663592	Stoigniewa	14	
50.0285699	19.9660320	Stoigniewa	6	
50.0291592	19.9676627	Stoigniewa	44	
50.0286216	19.9661768	Stoigniewa	10	
50.0271258	19.9720025	Alfreda Dauna	15	
50.0272830	19.9737035	Tarnowska	7	
50.0288849	19.9669232	Stoigniewa	24	
50.0291266	19.9676028	Stoigniewa	42	
50.0272246	19.9738193	Tarnowska	5	
50.0303408	19.9698160	Siemomysła	35	
50.0290005	19.9671424	Stoigniewa	30	
50.0319244	19.9686767	Siemomysła	2	
50.0313230	19.9681618	Wiktora Heltmana	28	
50.0316539	19.9687438	Siemomysła	10	
50.0318159	19.9687626	Siemomysła	6	
50.0307185	19.9697172	Siemomysła	21	
50.0305131	19.9697343	Siemomysła	29	
50.0317124	19.9687143	Siemomysła	8	
50.0318795	19.9687143	Siemomysła	4	
50.0306657	19.9697201	Siemomysła	23	
50.0304154	19.9697873	Siemomysła	33	
50.0306086	19.9697117	Siemomysła	25	
50.0305614	19.9697227	Siemomysła	27	
50.0314298	19.9681564	Wiktora Heltmana	26	
50.0304631	19.9697762	Siemomysła	31	
50.0867939	19.9075832	Marii Jaremy	10	Lewiatan
50.0722234	19.9323851	Krowoderska	75	Carrefour Express
50.0508503	19.9437585	Bożego Ciała	17	
50.0605011	19.9482907	Hugona Kołłątaja	2	
50.0460877	19.9662117	Jana Dekerta	17	Mateo
50.0853840	19.9110050	Marii Jaremy	1	
50.0858946	19.9094725	Marii Jaremy	15	
50.0839582	19.9035926	Walerego Eliasza Radzikowskiego	74	
50.0854568	19.9107872	Marii Jaremy	3	
50.0855304	19.9105657	Marii Jaremy	5	
50.0856038	19.9103449	Marii Jaremy	7	
50.0856762	19.9101281	Marii Jaremy	9	
50.0857503	19.9099057	Marii Jaremy	11	
50.0858235	19.9096859	Marii Jaremy	13	
50.0880498	19.9127457	Józefa Mehoffera	6	Klinika Krakowska
50.0880924	19.9127286	Józefa Mehoffera	6	
50.0858335	19.9041825	Bolesława Czerwieńskiego	16	"Chrześcijańska Szkoła Podstawowa ""Uczeń"""
50.0827914	19.9153085	Piotra Stachiewicza	2	
50.0866011	19.9168986	Piotra Stachiewicza	37	
50.0874737	19.9166525	Piotra Stachiewicza	52	Żabka
50.0866672	19.9082228	Zygmuntowska	22	
50.0865302	19.9081951	Marii Jaremy	8	
50.0410201	19.9969969	Przewóz	40a	
50.0416565	19.9941614	Przewóz	36/1	"Niepubliczne Przedszkole ""Nutki"""
50.0417131	19.9941848	Przewóz	36	
50.0126755	19.9102114	Księdza Adolfa Zagrodzkiego	3/4	Groszek
50.0797569	19.9731813	Jerzego Bajana	4	Bank Pekao
50.0793989	19.9738251	Jerzego Bajana	8	Apteka Ewa Rydz
50.0791857	19.9737032	Jerzego Bajana	8	Lewiatan
50.0792788	19.9736875	Jerzego Bajana	8	
50.0792100	19.9735909	Jerzego Bajana	8	Michalak Małgorzata. Gabinet stomatologiczny
50.0792911	19.9739090	Jerzego Bajana	8	PKO BP
50.0794879	19.9736570	Jerzego Bajana	8	AP Kraków 73
50.0479202	19.9877126	Księdza Wincentego Turka	15	
50.0479143	19.9895605	Księdza Wincentego Turka	21	
50.0467145	19.9896701	Księdza Wincentego Turka	24	
50.0467282	19.9897773	Księdza Wincentego Turka	26	
50.0467418	19.9898845	Księdza Wincentego Turka	28	
50.0467555	19.9899917	Księdza Wincentego Turka	30	
50.0467691	19.9900989	Księdza Wincentego Turka	32	
50.0467827	19.9902061	Księdza Wincentego Turka	34	
50.0467964	19.9903133	Księdza Wincentego Turka	36	
50.0445866	19.9995361	Lipska	63	
50.0455817	19.9989526	Myśliwska	70	
50.0459056	19.9990806	Myśliwska	72	
50.0464034	19.9990285	Myśliwska	74	
50.0452535	19.9993426	Myśliwska	76	
50.0779890	19.8920166	Stańczyka	14	Fabryka Pizzy
50.0796726	19.8953497	Bronowicka	76	
50.0789418	19.8973024	Bronowicka	60	Żabka
50.0788623	19.8975406	Bronowicka	58	Groszek
50.0791682	19.8963562	Bronowicka	64	Delikatesy Strefa
50.0206955	20.0500091	Nefrytowa	4	Lewiatan
50.0606344	19.9346592	Gołębia	12	
50.0606694	19.9345493	Gołębia	14	
50.0607350	19.9343686	Gołębia	16	
50.0608962	19.9338666	Gołębia	20	Uniwersytet Jagielloński - wydział polonistyki
50.0604926	19.9346042	Wiślna	9	
50.0763045	19.9957139	Aleja Jana Pawła II	137	Centrum Sportu i Rekreacji Politechniki Krakowskiej
50.0752242	19.9943842	Aleja Jana Pawła II	137	Centrum Szkolenia i Organizacji Systemów Jakości PK
50.0759563	19.9955238	Aleja Jana Pawła II	37	Instytut Pojazdów Samochodowych i Silników Spalinowych
50.0638149	20.0187514	Sołtysowska	12A	
50.0632277	20.0176582	Sołtysowska	12E	
50.0632404	20.0182163	Sołtysowska	12E	
50.0627546	20.0176969	Sołtysowska	12F	
50.0627673	20.0182550	Sołtysowska	12F	
50.0627884	20.0188300	Sołtysowska	12G	
50.0628659	20.0193852	Sołtysowska	12G	
50.0632630	20.0187868	Sołtysowska	12H	
50.0632778	20.0193450	Sołtysowska	12H	
50.0450859	19.9580346	Romualda Traugutta	26	Supra
50.0899735	19.9151635	Opolska	12A	Mitsubishi
50.0900770	19.9152561	Opolska	12	AutoSpa Kraków
50.0396261	19.9255297	Kapelanka	15	Hoang Hai
50.0437014	19.9221927	Twardowskiego	77	Galbit
50.0398937	19.9256689	Kapelanka	15D	Żabka
50.0945154	19.9698978	Powstańców	34B	Altum
50.0880425	19.9678172	Dobrego Pasterza	100	MET-MIX
50.0643268	20.0005679	Aleja Pokoju	67	Euronet
50.0640656	19.9990018	Aleja Pokoju	67	mBank
50.0639400	19.9983481	Aleja Pokoju	67	
50.0587031	19.9440231	Wielopole	7	Pasjo Cafe
50.0634037	19.9306782	Krupnicza	10	Karma
50.0467533	19.9283733	Mieszczańska	9A	
50.0468255	19.9285475	Mieszczańska	9B	
50.0795634	19.9918346	Profesora Michała Życzkowskiego	23	OpenSource
50.0626545	19.9299781	Studencka	15	Cafe mana mana
50.0636916	19.9279841	Dolnych Młynów	3	Bun Bakery
50.0294085	19.9255869	Wacława Lipińskiego	3	Panorama
50.0301302	19.9117032	Norymberska	1	Buczek
50.0668236	19.9201026	Czarnowiejska	38	Obieżyświat Resto Bar
50.0163455	19.8752323	Batalionów Chłopskich	2a	Teresko
50.0317962	19.9225115	Generała Stefana Grota-Roweckiego	6	Golemo
50.0315471	19.9221181	Generała Stefana Grota-Roweckiego	6	Peugeot
50.0973544	19.9913938	Budziszyńska	51	
50.0974309	19.9913734	Budziszyńska	53	
50.0975073	19.9913530	Budziszyńska	55	
50.0975837	19.9913326	Budziszyńska	57	
50.0976601	19.9913121	Budziszyńska	59	
50.0977365	19.9912917	Budziszyńska	61	
50.0978129	19.9912713	Budziszyńska	63	
50.0978894	19.9912509	Budziszyńska	65	
50.0980422	19.9912101	Budziszyńska	69	
50.0981186	19.9911897	Budziszyńska	71	
50.0610053	19.9388730	Sienna	1	
50.0606280	19.9393581	Stolarska	1	
50.0597499	19.9378553	Grodzka	10	
50.0599719	19.9391931	Stolarska	10	Ambasada Śledzia
50.0605656	19.9404885	Sienna	11	
50.0600086	19.9389294	Stolarska	11	
50.0596731	19.9378736	Grodzka	12	Royal Watch
50.0597511	19.9387680	Stolarska	13	
50.0596053	19.9378835	Grodzka	14	Folkstar
50.0604740	19.9407859	Sienna	15	
50.0595194	19.9378964	Grodzka	16	Carrefour Express
50.0594803	19.9378939	Grodzka	18	
50.0600917	19.9377974	Grodzka	2	
50.0592875	19.9379304	Grodzka	22	
50.0609238	19.9393049	Sienna	3	
50.0605258	19.9392542	Stolarska	3	
50.0599708	19.9378628	Grodzka	4	
50.0608815	19.9394658	Sienna	5	
50.0604044	19.9391639	Stolarska	5	
50.0598560	19.9378418	Grodzka	6	
50.0605482	19.9395042	Stolarska	6	
50.0607090	19.9399792	Sienna	7	
50.0602472	19.9390838	Stolarska	7	
50.0597926	19.9378424	Grodzka	8	
50.0600253	19.9392192	Stolarska	8	
50.0606117	19.9403450	Sienna	9	
50.0601411	19.9375690	Grodzka	1	
50.0592950	19.9382919	Plac Dominikański	1	
50.0606516	19.9379816	Rynek Główny	10	
50.0605672	19.9379320	Rynek Główny	11	
50.0604192	19.9378742	Rynek Główny	12	
50.0602586	19.9378307	Rynek Główny	13	
50.0581279	19.9376821	Poselska	16	
50.0592728	19.9377130	Grodzka	17	
50.0589272	19.9380042	Grodzka	26	
50.0587988	19.9379911	Grodzka	28	
50.0600392	19.9375923	Grodzka	3	
50.0587353	19.9380030	Grodzka	30	
50.0586030	19.9380649	Grodzka	32	
50.0581755	19.9378700	Grodzka	37	
50.0583278	19.9381782	Grodzka	38	
50.0580332	19.9382249	Grodzka	40	
50.0578489	19.9382158	Grodzka	42	
50.0607192	19.9380548	Rynek Główny	9	
50.0595457	19.9376668	Grodzka	13	
50.0594040	19.9377026	Grodzka	15	
50.0593080	19.9385117	Plac Dominikański	2	
50.0576192	19.9382509	Grodzka	46	
50.0597292	19.9369851	Grodzka	9	Chłopskie Jadło
50.0715786	20.0054511	Nowohucka	1D	
50.0331101	19.9240926	Kapelanka	54	Kwiaciarnia
50.0708721	20.0213349	Aleja Jana Pawła II	196	
50.0703067	20.0146496	Juliana Tuwima	23	
50.0707937	20.0348285	Aleja Jana Pawła II	232	
50.0702313	20.0140703	Aleja Pokoju	84	
50.0812818	19.8841810	Balicka	14b	
50.0815260	19.8826798	Balicka	16	Lewiatan
50.0140583	20.0034856	Jana Kurczaba	3	Lewiatan
50.0508049	19.9894173	Nowohucka	43	Szkoła jazdy - Lejdis
50.0285364	19.9171629	Zygmunta Miłkowskiego	21	Paradise
50.0573154	19.9447001	Starowiślna	20	Awiteks
50.0585458	19.9433795	Starowiślna	6	Fryzjer damski
50.0582166	19.9436810	Starowiślna	8	Euronet
50.0585843	19.9433384	Starowiślna	6	Hoan Kiem
50.0814092	19.8817209	Balicka	18C	OkejDRUK
50.0816775	19.8822051	Balicka	18	Żabka
50.0813222	19.8886633	Armii Krajowej	97	Żabka
50.0813885	19.8813787	Balicka	18	
50.0627539	20.0229119	Sołtysowska	37A	Hostel Rest
50.0640727	20.0187667	Sołtysowska	12A/4	IronCAD.pl
50.0640961	20.0186769	Sołtysowska	12A/3	Dakadent
50.0641151	20.0187118	Sołtysowska	12A/6U	"Sklep stomatologiczny ""Dentix S.C."""
50.0641288	20.0192496	Sołtysowska	12A/2U	Edith
50.0641060	20.0191944	Sołtysowska	12A	Żabka
50.0641314	20.0193207	Sołtysowska	12A/1U	Żądlak - Parkiety
50.0603038	20.0165449	Sikorki	23	Neonet
50.0642882	20.0152669	Sołtysowska	23a	"Niepubliczne Przedszkole ""Baby Garden"""
50.0943962	19.9377794	Białoprądnicka	10	"Niepubliczne Przedszkole ""Baby Garden"""
50.0642948	20.0154143	Sołtysowska	23a	"Sklep spożywczo-przemysłowy ""Nasz Sklep"""
50.0634698	20.0045495	Centralna	53B	Bar Anja
50.0632259	20.0045910	Centralna	53A	
50.0640427	19.9998227	Aleja Pokoju	67	
50.0266505	19.9226966	Strąkowa	1	Rehmedic
50.0934188	20.0223255	Generała Leopolda Okulickiego	51	Biedronka
50.0665691	19.9226691	Karola Szymanowskiego	15	
50.0111987	20.0100467	Erazma Jerzmanowskiego	37	
50.0114581	20.0101062	Erazma Jerzmanowskiego	37	Dom Chleba
50.0130013	20.0121452	Erazma Jerzmanowskiego	32B	Salon Fryzjerski Teresa
50.0855197	19.8959829	Walerego Eliasza Radzikowskiego	69	Kwant Bistro
50.0867382	19.9043140	Bolesława Czerwieńskiego	20A	Małopolski Wagon
50.0812070	19.8842353	Balicka	14b	PKO BP
50.0654918	19.9272112	Piotra Michałowskiego	19	
50.0653300	19.9273968	Czarnowiejska	1	
50.0636999	19.9289423	Krupnicza	19a	Green Caffè Nero
50.0660987	19.9297069	Karmelicka	34	Veganic
50.0661892	19.9284399	Piotra Michałowskiego	10	Szkoła podstawowa z oddziałem dwujęzycznym im. Piotra Michałowskiego
50.0644924	19.9283052	Rajska	20	Floral Concept Store
50.0657320	19.9274672	Piotra Michałowskiego	15	
50.0632907	19.9279977	Krupnicza	30	Awiteks
50.0634095	19.9324442	Podwale	6/7	Kantor
50.0647616	19.9319239	Karmelicka	17	Bar na rogu Kuchnia Polska
50.0621529	19.9361520	Rynek Główny	31	
50.0629881	19.9388537	Świętego Tomasza	13	Dym
50.0635891	19.9318692	Krupnicza	3	Sklep papierniczy
50.0665864	19.9289934	Piotra Michałowskiego	2	
50.0664831	19.9288056	Piotra Michałowskiego	4	
50.0663781	19.9286527	Piotra Michałowskiego	6	
50.0654660	19.9257689	Czarnowiejska	4	
50.0635734	19.9299536	Krupnicza	11a	
50.0638197	19.9328236	Karmelicka	3	Dutchpoint
50.0639763	19.9327241	Karmelicka	5	Muzyczny Kraków
50.0205342	19.8988892	Profesora Michała Bobrzyńskiego	33	Lewiatan
50.0918526	20.1340279	Spławy	2	
50.0722208	19.9192008	Królewska	45-47	UP Kraków 16
50.0727175	19.9180348	Nowowiejska	14	Frikolino
50.0725501	19.9179470	Królewska	49	Carrefour Express
50.0738466	19.9174464	Kazimierza Wielkiego	82A	Żabka
50.0745068	19.9176943	Bytomska	1	Apart Hostel Nazar
50.0737443	19.9165230	Aleja Kijowska	22	Kraków dla Mieszkańców
50.0738439	19.9165762	Aleja Kijowska	24	Alior Bank
50.0732932	19.9162003	Królewska	55	Rossmann
50.0723173	19.9188544	Królewska	47	Muza II
50.0721321	19.9194945	Królewska	45	Awiteks
50.0738130	19.9175944	Kazimierza Wielkiego	82A	In Time
50.0263579	19.9246819	Strąkowa	7	Samorządowe Przedszkole nr 10
50.0381018	19.9248799	Kapelanka	37	Myjnia samochodowa
50.0664377	19.9618480	Kielecka	2	Bank BPH
50.0665147	19.9627342	Kielecka	1	BOŚ Bank
50.0663586	19.9566114	Topolowa	50	FUP Kraków 53
50.0294930	19.9250812	Wacława Lipińskiego	3a	Active
50.0272702	19.9313390	Koszalińska	12	Seminarium Duchowne Misjonarzy Matki Bożej z La Salette
50.0156495	20.0088821	Leonida Teligi	24	Rossmann
50.0151507	20.0094098	Leonida Teligi	24	Lewiatan
50.0668429	19.9648196	Mogilska	42	Avita
50.0666420	19.9632537	Mogilska	40	Żabka
50.0205758	19.9753604	Aleksandra Szukiewicza	3	
50.0668483	19.9570054	Aleksandra Lubomirskiego	51	Lam Kieu
50.0668244	19.9662777	Mogilska	58	Bar Smakosz
50.0666747	19.9682948	Mogilska	68	Spirodek Alicja
50.0272524	19.9216876	Wacława Lipińskiego	20a	Drink Bar
50.0664380	19.9558011	Topolowa	16	
50.0662509	19.9569072	Topolowa	17	
50.0659190	19.9545004	Ariańska	3	
50.0668816	19.9531290	Topolowa	52	
50.0666645	19.9544574	Topolowa	8	
50.0651277	19.9530756	Lubicz	5	
50.0659918	19.9517055	Rakowicka	16	
50.0671640	19.9509523	Topolowa	32	
50.0638613	19.9467509	Radziwiłłowska	1	
50.0634392	19.9451810	Doktora Ludwika Zamenhofa	10	
50.0645686	19.9464057	Lubicz	5	
50.0628142	19.9451641	Marii Skłodowskiej-Curie	14	
50.0620652	19.9447834	Westerplatte	20	
50.0611862	19.9443452	Mikołaja Kopernika	12	
50.0600472	19.9764186	Aleja Pokoju	20	Podwawelskie
50.0997314	19.9677110	Arcybiskupa Zygmunta Szczęsnego Felińskiego	20	Żabka
50.0674552	20.0127641	Centralna	43A	
50.0585901	20.0281984	Niepokalanej Marii Panny	10	
50.0640402	20.0141760	Sołtysowska	10	
50.0586513	20.0280459	Niepokalanej Marii Panny	10a	
50.0640007	20.0140272	Sołtysowska	10B	
50.0546963	20.0355613	Niepokalanej Marii Panny	67	
50.0550147	20.0368819	Niepokalanej Marii Panny	67A	
50.0546434	20.0342802	Niepokalanej Marii Panny	74	
50.0544838	20.0344687	Niepokalanej Marii Panny	76	
50.0543273	20.0345868	Niepokalanej Marii Panny	78	
50.0541018	20.0348284	Niepokalanej Marii Panny	80	
50.0539534	20.0349890	Niepokalanej Marii Panny	82	
50.0536861	20.0352509	Niepokalanej Marii Panny	90	
50.0538588	20.0350589	Niepokalanej Marii Panny	84	
50.0531854	20.0373014	Niepokalanej Marii Panny	111A	
50.0533052	20.0384008	Niepokalanej Marii Panny	111B	
50.0550603	20.0437463	Grąby	10	
50.0568803	20.0458017	Jana Onufrego Zagłoby	10	
50.0567343	20.0452685	Jana Onufrego Zagłoby	11	
50.0549999	20.0433705	Grąby	12	
50.0566023	20.0458532	Jana Onufrego Zagłoby	12	
50.0565189	20.0452785	Jana Onufrego Zagłoby	13	
50.0564546	20.0458446	Jana Onufrego Zagłoby	12a	
50.0562865	20.0458423	Jana Onufrego Zagłoby	14	
50.0559536	20.0457988	Jana Onufrego Zagłoby	16	
50.0555983	20.0458630	Jana Onufrego Zagłoby	20	
50.0553549	20.0458417	Jana Onufrego Zagłoby	22	
50.0552214	20.0463432	Jana Onufrego Zagłoby	24	
50.0550492	20.0458403	Jana Onufrego Zagłoby	26	
50.0547956	20.0458443	Jana Onufrego Zagłoby	28	
50.0575959	20.0452287	Jana Onufrego Zagłoby	3	
50.0548985	20.0466091	Jana Onufrego Zagłoby	32	
50.0549010	20.0467642	Jana Onufrego Zagłoby	34	
50.0549035	20.0469193	Jana Onufrego Zagłoby	36	
50.0549060	20.0470744	Jana Onufrego Zagłoby	38	
50.0551271	20.0447416	Grąby	4	
50.0549085	20.0472295	Jana Onufrego Zagłoby	40	
50.0549110	20.0473846	Jana Onufrego Zagłoby	42	
50.0545977	20.0458724	Jana Onufrego Zagłoby	46	
50.0546081	20.0461115	Jana Onufrego Zagłoby	48	
50.0573805	20.0452387	Jana Onufrego Zagłoby	5	
50.0543353	20.0465138	Jana Onufrego Zagłoby	54	
50.0543578	20.0466775	Jana Onufrego Zagłoby	56	
50.0543771	20.0468283	Jana Onufrego Zagłoby	58	
50.0551377	20.0444280	Grąby	6	
50.0575848	20.0457999	Jana Onufrego Zagłoby	6	
50.0544027	20.0470049	Jana Onufrego Zagłoby	60	
50.0543799	20.0472182	Jana Onufrego Zagłoby	62	
50.0544131	20.0473717	Jana Onufrego Zagłoby	62A	
50.0571895	20.0452676	Jana Onufrego Zagłoby	7	
50.0550482	20.0440317	Grąby	8	
50.0572030	20.0458166	Jana Onufrego Zagłoby	8	
50.0569253	20.0452522	Jana Onufrego Zagłoby	9	
50.0562817	20.0438665	Wojenna	5	
50.0560041	20.0443879	Graniczna	6	
50.0560021	20.0442321	Graniczna	6A	
50.0562817	20.0437393	Graniczna	9	
50.0571818	20.0449104	Jagienki	1	
50.0577321	20.0433787	Andrzeja Kmicica	10	
50.0568781	20.0434072	Jagienki	10	
50.0580284	20.0434277	Andrzeja Kmicica	11	
50.0572051	20.0433965	Jagienki	11	
50.0580268	20.0433047	Andrzeja Kmicica	11A	
50.0568716	20.0430897	Jagienki	12	
50.0582115	20.0430211	Andrzeja Kmicica	13	
50.0568651	20.0427722	Jagienki	14	
50.0580407	20.0425208	Andrzeja Kmicica	15	
50.0580369	20.0423966	Andrzeja Kmicica	15A	
50.0568760	20.0425430	Jagienki	16	
50.0568741	20.0424247	Jagienki	16A	
50.0568521	20.0421371	Jagienki	18	
50.0581542	20.0417466	Andrzeja Kmicica	19	
50.0578030	20.0446093	Andrzeja Kmicica	2	
50.0569041	20.0446774	Jagienki	2	
50.0579502	20.0414108	Andrzeja Kmicica	21	
50.0579411	20.0412951	Andrzeja Kmicica	21A	
50.0571775	20.0446051	Jagienki	3	
50.0568213	20.0405907	Opata Salwińskiego	33	
50.0568992	20.0405975	Opata Salwińskiego	35	
50.0578009	20.0442975	Andrzeja Kmicica	4	
50.0568976	20.0443599	Jagienki	4	
50.0580294	20.0442592	Andrzeja Kmicica	5	
50.0571731	20.0442999	Jagienki	5	
50.0577979	20.0439860	Andrzeja Kmicica	6	
50.0568911	20.0440423	Jagienki	6	
50.0580262	20.0440117	Andrzeja Kmicica	7	
50.0571692	20.0439947	Jagienki	7	
50.0577341	20.0436904	Andrzeja Kmicica	8	
50.0568846	20.0437248	Jagienki	8	
50.0580301	20.0436708	Andrzeja Kmicica	9	
50.0571929	20.0436915	Jagienki	9	
50.0851975	19.9839459	Ernesta Cieślewskiego	11	
50.0848186	19.9845241	Ernesta Cieślewskiego	13	
50.0844138	19.9833593	Ernesta Cieślewskiego	15	
50.0843982	19.9844991	Ernesta Cieślewskiego	17	
50.0845077	19.9813229	Ernesta Cieślewskiego	3	
50.0844863	19.9824313	Ernesta Cieślewskiego	5	
50.0853614	19.9819358	Ernesta Cieślewskiego	7	
50.0853342	19.9830936	Ernesta Cieślewskiego	9	
50.0668366	19.9609934	Generała Józefa Chłopickiego	3	Margit
50.0603359	19.9623163	Kazimierza Kordylewskiego	7	FUP Kraków 49
50.0592748	19.9372275	Plac Wszystkich Świętych	10	Sklepik Magiczny
50.0113572	20.0093506	Erazma Jerzmanowskiego	38	Delikatesy Centrum
50.0811055	19.9767486	Pilotów	79	
50.0114930	20.0095191	Erazma Jerzmanowskiego	38	Pepco
50.0844172	19.9633367	Bosaków	11	Gotik akcesoria komputerowe
50.0788195	19.9000730	Józefa Leopolda Kmietowicza	5	Bronowice
50.0803467	19.9616963	Brogi	14b	Sleep Krak
50.0845190	19.9505593	Aleja 29 Listopada	56B	
50.0823819	19.9545185	Generała Ignacego Prądzyńskiego	16	Ulik
50.0860329	19.9478161	Żabiniec	10	
50.0859950	19.9477936	Żabiniec	10a	
50.0862649	19.9472712	Żabiniec	11	
50.0861829	19.9472546	Żabiniec	13	
50.0857488	19.9477189	Żabiniec	14	
50.0859485	19.9471961	Żabiniec	17	
50.0854886	19.9476341	Żabiniec	18	
50.0859767	19.9497594	Żmujdzka	18	
50.0858177	19.9471773	Żabiniec	19	
50.0853261	19.9475892	Żabiniec	20	
50.0860612	19.9494787	Żmujdzka	20	
50.0857479	19.9471585	Żabiniec	21	
50.0861457	19.9491980	Żmujdzka	22	
50.0856476	19.9471397	Żabiniec	23	
50.0851092	19.9474999	Żabiniec	24	
50.0855473	19.9471208	Żabiniec	25	
50.0849626	19.9474394	Żabiniec	26	
50.0863177	19.9486392	Żmujdzka	26	
50.0854470	19.9471020	Żabiniec	27	
50.0861903	19.9503842	Żmujdzka	27	
50.0848074	19.9475799	Żabiniec	28	
50.0864297	19.9483828	Żmujdzka	28	
50.0853476	19.9470746	Żabiniec	29	
50.0864351	19.9501383	Żmujdzka	29	
50.0846778	19.9474691	Żabiniec	30	
50.0865416	19.9481265	Żmujdzka	30	
50.0852484	19.9470446	Żabiniec	31	
50.0845447	19.9473371	Żabiniec	32	
50.0866536	19.9478702	Żmujdzka	32	
50.0851320	19.9470015	Żabiniec	33	
50.0843760	19.9471522	Żabiniec	34	
50.0850512	19.9469749	Żabiniec	35	
50.0842260	19.9477795	Żabiniec	36	"Myjnia ""Cronos"""
50.0849703	19.9469483	Żabiniec	37	
50.0840162	19.9476396	Żabiniec	38	
50.0848895	19.9469216	Żabiniec	39	
50.0863322	19.9496603	Żmujdzka	39	
50.0864899	19.9477875	Żabiniec	4	
50.0864265	19.9494120	Żmujdzka	41	
50.0865023	19.9491283	Żmujdzka	43	
50.0836391	19.9475431	Żabiniec	44	
50.0836843	19.9469942	Żabiniec	44a	
50.0866743	19.9486191	Żmujdzka	45	
50.0835640	19.9469398	Żabiniec	46	
50.0870545	19.9479562	Żmujdzka	49	Inter Cars S.A.
50.0831706	19.9468081	Żabiniec	50	
50.0829391	19.9471787	Żabiniec	52	
50.0826254	19.9479121	Żabiniec	56	
50.0864288	19.9473043	Żabiniec	7	
50.0862067	19.9477400	Żabiniec	8	
50.0863468	19.9472878	Żabiniec	9	
50.0866321	19.9395912	Lekarska	10	
50.0866253	19.9399684	Księdza Kazimierza Siemaszki	38	
50.0866746	19.9390203	Lekarska	4	
50.0866463	19.9394009	Lekarska	8	
50.0818760	19.9460432	Żabiniec	95	
50.0819229	19.9457699	Żabiniec	97	
50.0442200	19.9481054	Kalwaryjska	1	Pracownia złotnicza Krzysztof Bocheński
50.0450207	19.9494256	Rynek Podgórski	14	Yatai Sushi Otsumami Bar
50.0442220	19.9476255	Kalwaryjska	6	Steskal
50.0908847	19.9395690	Prądnicka	125	
50.0900443	19.9401276	Biała	15	
50.0868435	19.9386871	Prądnicka	69	
50.0900824	19.9401686	Janusza Korczaka	7	
50.0870573	19.9387356	Prądnicka	71	
50.0871870	19.9387484	Prądnicka	73	
50.0873234	19.9391200	Prądnicka	75	
50.0873891	19.9387740	Prądnicka	77	
50.0875647	19.9387957	Prądnicka	79	
50.0876763	19.9388264	Prądnicka	81	
50.0877974	19.9388511	Prądnicka	83	
50.0880359	19.9388857	Prądnicka	87	
50.0883137	19.9389372	Prądnicka	89	
50.0877879	19.9403558	Księdza Kazimierza Siemaszki	39a	
50.0869849	19.9399529	Księdza Kazimierza Siemaszki	42	
50.0871362	19.9400426	Księdza Kazimierza Siemaszki	44	
50.0872532	19.9399409	Księdza Kazimierza Siemaszki	46a	
50.0873874	19.9399349	Księdza Kazimierza Siemaszki	48	
50.0875215	19.9399289	Księdza Kazimierza Siemaszki	50	
50.0722095	19.9072745	Warmijska	10	
50.0628323	19.9042571	Daniela Chodowieckiego	1	Trattoria Cichy Kącik
50.0886174	19.9346887	Generała Augusta Fieldorfa-Nila	11	
50.0882691	19.9346891	Generała Augusta Fieldorfa-Nila	15	
50.0861322	19.9314104	Krowoderskich Zuchów	6	
50.0830034	19.9380667	Prądnicka	35	
50.0880099	19.9304037	Krowoderskich Zuchów	13	
50.0907649	19.9286482	Opolska	13	
50.0907382	19.9284613	Opolska	15	
50.0907115	19.9282744	Opolska	17	
50.0906848	19.9280876	Opolska	19	
50.0870732	19.9242102	"Batalionu ""Skała"" AK"	2	
50.0906581	19.9279007	Opolska	21	
50.0906314	19.9277138	Opolska	23	
50.0906047	19.9275270	Opolska	25	
50.0905780	19.9273401	Opolska	27	
50.0905513	19.9271532	Opolska	29	
50.0870811	19.9245819	"Batalionu ""Skała"" AK"	2B	
50.0905245	19.9269664	Opolska	31	
50.0904978	19.9267795	Opolska	33	
50.0904711	19.9265926	Opolska	35	
50.0904354	19.9261150	Opolska	41	
50.0904324	19.9259230	Opolska	43	
50.0904295	19.9257310	Opolska	45	
50.0904266	19.9255390	Opolska	47	
50.0904236	19.9253470	Opolska	49	
50.0904207	19.9251549	Opolska	51	
50.0904178	19.9249629	Opolska	53	
50.0904148	19.9247709	Opolska	55	
50.0904119	19.9245789	Opolska	57	
50.0904090	19.9243869	Opolska	59	
50.0904060	19.9241949	Opolska	61	
50.0904031	19.9240029	Opolska	63	
50.0904002	19.9238109	Opolska	65	
50.0903972	19.9236188	Opolska	67	
50.0903943	19.9234268	Opolska	69	
50.0888836	19.9304035	Krowoderskich Zuchów	8	
50.0843915	19.9262916	Rusznikarska	1	
50.0852112	19.9262701	Rusznikarska	11	
50.0845554	19.9262873	Rusznikarska	3	
50.0835323	19.9300609	Józefa Wybickiego	3a	
50.0847194	19.9262830	Rusznikarska	5	
50.0848833	19.9262787	Rusznikarska	7	
50.0850472	19.9262744	Rusznikarska	9	
50.0827168	19.9193138	Józefa Wybickiego	42	
50.0827634	19.9192640	Jana Styki	6	
50.0855765	19.8882692	Walerego Eliasza Radzikowskiego	109	
50.0893528	19.8840003	Walerego Eliasza Radzikowskiego	127	
50.0894188	19.8836634	Walerego Eliasza Radzikowskiego	129	FUP Kraków 23
50.0863587	19.8943710	Walerego Eliasza Radzikowskiego	138	
50.0864133	19.8940954	Walerego Eliasza Radzikowskiego	140	
50.0854807	19.8980085	Walerego Eliasza Radzikowskiego	114A	
50.0855699	19.8980490	Walerego Eliasza Radzikowskiego	114B	
50.0856497	19.8980856	Walerego Eliasza Radzikowskiego	114C	
50.0857265	19.8981167	Walerego Eliasza Radzikowskiego	114D	
50.0858200	19.8981415	Walerego Eliasza Radzikowskiego	114E	
50.0858877	19.8982038	Walerego Eliasza Radzikowskiego	114F	
50.0859479	19.8982261	Walerego Eliasza Radzikowskiego	114G	
50.0859986	19.8982461	Walerego Eliasza Radzikowskiego	114H	
50.0873710	19.8980556	Stanisława Fishera	30	
50.0874689	19.8981072	Stanisława Fishera	32	
50.0881737	19.9001325	Josepha Conrada	39	
50.0937015	19.9157252	Władysława Łokietka	106	
50.0984623	19.9119023	Władysława Łokietka	146	
50.0989192	19.9105531	Władysława Łokietka	154a	
50.0989263	19.9104440	Władysława Łokietka	154b	
50.0989335	19.9103348	Władysława Łokietka	154c	
50.0989406	19.9102256	Władysława Łokietka	154d	
50.0989538	19.9101180	Władysława Łokietka	154e	
50.0989792	19.9099856	Władysława Łokietka	154f	
50.0989864	19.9099045	Władysława Łokietka	154g	
50.0990027	19.9097977	Władysława Łokietka	154h	
50.0988963	19.9094370	Władysława Łokietka	154i	
50.0990435	19.9094987	Władysława Łokietka	154j	
50.0990822	19.9092202	Władysława Łokietka	154k	
50.0989285	19.9091519	Władysława Łokietka	154l	
50.0990021	19.9087378	Władysława Łokietka	154m	
50.0991573	19.9087847	Władysława Łokietka	154n	
50.0992052	19.9084777	Władysława Łokietka	154o	
50.0990615	19.9084170	Władysława Łokietka	154p	
50.0991258	19.9080202	Władysława Łokietka	154r	
50.0992729	19.9080829	Władysława Łokietka	154s	
50.0983967	19.9118571	Chabrowa	2	
50.0978884	19.9116647	Orlich Gniazd	2	
50.0936557	19.9157279	Owsiana	2	
50.0917388	19.9175987	Skrajna	2	
50.1045830	19.9060400	Władysława Łokietka	236	
50.1045824	19.9058821	Władysława Łokietka	236a	
50.0981920	19.9089494	Chabrowa	25	
50.0982134	19.9087634	Chabrowa	27	
50.0977069	19.9094913	Orlich Gniazd	35	
50.0978083	19.9094204	Orlich Gniazd	37	
50.0978020	19.9116777	Orlich Gniazd	4	
50.0918180	19.9177083	Władysława Łokietka	90	
50.0666537	19.9391530	Długa	1	
50.0674180	19.9317418	Jana Sobieskiego	1	
50.0680448	19.9309957	Kremerowska	1	
50.0664149	19.9385204	Krowoderska	1	
50.0675693	19.9333967	Stefana Batorego	1	
50.0681443	19.9310369	Jana Sobieskiego	10	
50.0677777	19.9300393	Kremerowska	10	
50.0672067	19.9322021	Stefana Batorego	10	
50.0667432	19.9339513	Łobzowska	10	
50.0674784	19.9388438	Długa	11	
50.0672595	19.9380022	Krowoderska	11	
50.0672923	19.9311470	Stefana Batorego	11	
50.0671241	19.9386605	Długa	12	
50.0678003	19.9297966	Kremerowska	12	
50.0668657	19.9339115	Łobzowska	12	
50.0674025	19.9379107	Krowoderska	13	
50.0684118	19.9309195	Jana Sobieskiego	14	
50.0670233	19.9316430	Stefana Batorego	14	
50.0670336	19.9338550	Łobzowska	14	
50.0686444	19.9311132	Jana Sobieskiego	15	
50.0678864	19.9291545	Kremerowska	15	
50.0675703	19.9378050	Krowoderska	15	
50.0672225	19.9306515	Stefana Batorego	15b	
50.0672557	19.9308812	Stefana Batorego	15a	
50.0676660	19.9293148	Kremerowska	16	
50.0670852	19.9312619	Stefana Batorego	16	
50.0672261	19.9338291	Łobzowska	16	
50.0684318	19.9303710	Jana Sobieskiego	16A	
50.0684202	19.9300536	Jana Sobieskiego	16B	
50.0685102	19.9298321	Jana Sobieskiego	16C	
50.0687434	19.9310289	Jana Sobieskiego	17	
50.0677814	19.9289463	Kremerowska	17	
50.0677237	19.9377099	Krowoderska	17	
50.0671848	19.9303601	Stefana Batorego	17	
50.0686931	19.9303686	Jana Sobieskiego	18	
50.0670447	19.9309485	Stefana Batorego	18	
50.0673754	19.9338023	Łobzowska	18	
50.0689142	19.9309446	Jana Sobieskiego	19	
50.0678991	19.9376011	Krowoderska	19	
50.0671429	19.9300753	Stefana Batorego	19	
50.0675681	19.9330426	Stefana Batorego	1a	
50.0664480	19.9389108	Długa	2	
50.0673663	19.9314489	Jana Sobieskiego	2	
50.0678663	19.9311162	Kremerowska	2	
50.0664863	19.9381990	Krowoderska	2	
50.0674254	19.9336822	Stefana Batorego	2	Nova
50.0658275	19.9343651	Łobzowska	2	Żabka
50.0688038	19.9307143	Jana Sobieskiego	20	
50.0670042	19.9306351	Stefana Batorego	20	
50.0677052	19.9335382	Łobzowska	20	
50.0680711	19.9374983	Krowoderska	21	
50.0671137	19.9298319	Stefana Batorego	21	
50.0689318	19.9306620	Jana Sobieskiego	22	
50.0669398	19.9302537	Stefana Batorego	22	
50.0682069	19.9374181	Krowoderska	23	
50.0670858	19.9296498	Stefana Batorego	23	
50.0690652	19.9306010	Jana Sobieskiego	24	
50.0668993	19.9298970	Stefana Batorego	24	
50.0686239	19.9329855	Łobzowska	24	Katedra Hodowli Roślin i Nasiennictwa UR
50.0683118	19.9373584	Krowoderska	25	
50.0670453	19.9293715	Stefana Batorego	25	
50.0668826	19.9296948	Stefana Batorego	26	
50.0683997	19.9373112	Krowoderska	27	
50.0690063	19.9328305	Łobzowska	28	
50.0685437	19.9372304	Krowoderska	29	
50.0680337	19.9307345	Kremerowska	3	
50.0665683	19.9384429	Krowoderska	3	
50.0674975	19.9326412	Stefana Batorego	3	
50.0687124	19.9371353	Krowoderska	31	
50.0697876	19.9375747	Długa	33	
50.0688119	19.9370808	Krowoderska	33	
50.0699401	19.9374227	Długa	35	
50.0692190	19.9366950	Krowoderska	35	
50.0700487	19.9373233	Długa	37	
50.0693289	19.9366882	Krowoderska	37	
50.0701420	19.9372345	Długa	39	
50.0694679	19.9365291	Krowoderska	39	
50.0665832	19.9388607	Długa	4	
50.0675323	19.9313327	Jana Sobieskiego	4	
50.0678531	19.9308523	Kremerowska	4	
50.0673549	19.9333663	Stefana Batorego	4	
50.0660925	19.9342717	Łobzowska	4	
50.0694139	19.9375874	Długa	40	
50.0702438	19.9371509	Długa	41	
50.0696142	19.9363795	Krowoderska	41	Bali Beauty House
50.0695531	19.9374434	Długa	42	
50.0703422	19.9370278	Długa	43	
50.0697166	19.9362414	Krowoderska	43	
50.0696923	19.9372995	Długa	44	
50.0705015	19.9368942	Długa	45	
50.0698287	19.9361146	Krowoderska	45	
50.0698314	19.9371555	Długa	46	
50.0706438	19.9367633	Długa	47	
50.0699677	19.9359460	Krowoderska	47	
50.0699706	19.9370116	Długa	48	
50.0700713	19.9358363	Krowoderska	49	
50.0673237	19.9331770	Stefana Batorego	4A	
50.0677816	19.9315736	Jana Sobieskiego	5	
50.0680286	19.9305165	Kremerowska	5	
50.0667412	19.9382672	Krowoderska	5	
50.0709635	19.9365558	Długa	51	
50.0701920	19.9356887	Krowoderska	51	
50.0702511	19.9367288	Długa	52	
50.0703310	19.9355391	Krowoderska	53	City Sun Apartment
50.0703925	19.9365903	Długa	54	
50.0712797	19.9364444	Długa	55	
50.0704773	19.9353649	Krowoderska	55	
50.0705356	19.9364571	Długa	56	
50.0706223	19.9351849	Krowoderska	57	
50.0706916	19.9363640	Długa	58	
50.0717257	19.9362967	Długa	59	
50.0676857	19.9311953	Jana Sobieskiego	6	
50.0678399	19.9305884	Kremerowska	6	
50.0673019	19.9328869	Stefana Batorego	6	
50.0662766	19.9341702	Łobzowska	6	
50.0708476	19.9362708	Długa	60	
50.0718858	19.9362325	Długa	61	
50.0710036	19.9361777	Długa	62	
50.0720459	19.9361684	Długa	63	
50.0725322	19.9360942	Długa	67	
50.0717073	19.9333837	Krowoderska	67	
50.0714464	19.9359849	Długa	68	
50.0726404	19.9361679	Długa	69	
50.0727231	19.9361402	Długa	69A	
50.0728458	19.9362469	Długa	69B	
50.0729383	19.9361337	Długa	69C	
50.0729480	19.9360283	Długa	69D	
50.0673059	19.9330213	Stefana Batorego	6A	
50.0679436	19.9315075	Jana Sobieskiego	7	
50.0680115	19.9302119	Kremerowska	7	
50.0669002	19.9381924	Krowoderska	7	
50.0717177	19.9358210	Długa	70	
50.0721067	19.9355831	Długa	74	
50.0722621	19.9354516	Długa	76	
50.0723840	19.9353387	Długa	78	
50.0677949	19.9303159	Kremerowska	8	
50.0672472	19.9325155	Stefana Batorego	8	
50.0664607	19.9340688	Łobzowska	8	
50.0729606	19.9348460	Długa	84	
50.0731336	19.9346881	Długa	86	
50.0673606	19.9388882	Długa	9	
50.0680004	19.9299507	Kremerowska	9	
50.0671075	19.9380875	Krowoderska	9	
50.0673202	19.9313663	Stefana Batorego	9	
50.0640243	19.9321602	Karmelicka	10	Bar Smak
50.0642244	19.9324656	Karmelicka	11	
50.0641653	19.9320246	Karmelicka	12	
50.0643844	19.9323125	Karmelicka	13	
50.0642656	19.9319298	Karmelicka	14	
50.0645586	19.9322233	Karmelicka	15	Calzemimi
50.0645753	19.9320693	Karmelicka	15a	
50.0644136	19.9317813	Karmelicka	16	
50.0646960	19.9319844	Karmelicka	17	
50.0645616	19.9316327	Karmelicka	18	
50.0650610	19.9317506	Karmelicka	19	
50.0647097	19.9314842	Karmelicka	20	
50.0655295	19.9309791	Karmelicka	21a	
50.0656500	19.9308305	Karmelicka	21A	Stara mydlarnia
50.0648577	19.9313357	Karmelicka	22	
50.0658414	19.9306043	Karmelicka	23	
50.0660328	19.9303780	Karmelicka	25	
50.0662242	19.9301517	Karmelicka	27	
50.0664156	19.9299255	Karmelicka	29	
50.0658429	19.9301138	Karmelicka	30	Serwis IGSM
50.0666071	19.9296992	Karmelicka	31	
50.0667914	19.9294533	Karmelicka	35	
50.0662356	19.9295833	Karmelicka	36	Maksymilian
50.0666049	19.9291628	Karmelicka	42	
50.0668254	19.9289061	Karmelicka	44	
50.0639259	19.9327569	Karmelicka	5	
50.0674996	19.9281133	Karmelicka	52	
50.0676295	19.9279585	Karmelicka	54	
50.0677594	19.9278036	Karmelicka	56	
50.0678893	19.9276487	Karmelicka	58	
50.0636670	19.9325086	Karmelicka	6	
50.0684385	19.9270354	Karmelicka	68	
50.0685506	19.9269025	Karmelicka	68	
50.0686627	19.9267696	Karmelicka	70	
50.0640800	19.9326092	Karmelicka	9	
50.0654190	19.9336984	Garbarska	10	
50.0654690	19.9331194	Garbarska	11	
50.0653545	19.9335127	Garbarska	12	
50.0652782	19.9333045	Garbarska	14	
50.0652947	19.9325389	Garbarska	15	
50.0652168	19.9331383	Garbarska	16	
50.0651250	19.9328872	Garbarska	18-20	
50.0656729	19.9348315	Garbarska	2	
50.0649966	19.9326073	Garbarska	22	
50.0649173	19.9324100	Garbarska	24	
50.0648381	19.9322126	Garbarska	26	
50.0658460	19.9343319	Garbarska	3	
50.0656070	19.9343561	Garbarska	4	
50.0657932	19.9341578	Garbarska	5	
50.0655290	19.9341031	Garbarska	6	
50.0656966	19.9338583	Garbarska	7	
50.0654776	19.9338989	Garbarska	8	
50.0655917	19.9334409	Garbarska	9	
50.0638178	19.9290198	Józefa Szujskiego	1	
50.0643894	19.9304445	Rajska	10	
50.0647292	19.9301448	Rajska	10a	
50.0644917	19.9288471	Józefa Szujskiego	11	
50.0640123	19.9303249	Krupnicza	11b	
50.0648981	19.9312239	Rajska	2	
50.0645108	19.9285340	Rajska	20	
50.0644869	19.9283373	Rajska	22	
50.0644545	19.9280449	Rajska	24	
50.0639526	19.9289853	Józefa Szujskiego	3	
50.0640413	19.9298877	Józefa Szujskiego	4	
50.0648559	19.9309541	Rajska	4	
50.0640874	19.9289507	Józefa Szujskiego	5	
50.0640669	19.9293175	Józefa Szujskiego	6	
50.0648136	19.9306843	Rajska	6	
50.0642222	19.9289162	Józefa Szujskiego	7	
50.0647714	19.9304145	Rajska	8	
50.0643570	19.9288816	Józefa Szujskiego	9	
50.0605794	19.9321031	Marszałka Józefa Piłsudskiego	1	
50.0609551	19.9302506	Jabłonowskich	10	
50.0603546	19.9304272	Marszałka Józefa Piłsudskiego	13	
50.0602573	19.9299181	Marszałka Józefa Piłsudskiego	15	
50.0610151	19.9316873	Jabłonowskich	2	
50.0603357	19.9320867	Marszałka Józefa Piłsudskiego	2	
50.0597441	19.9281938	Marszałka Józefa Piłsudskiego	24	Ostoya Palace Hotel
50.0594719	19.9273776	Marszałka Józefa Piłsudskiego	26	
50.0592222	19.9257484	Marszałka Józefa Piłsudskiego	40	
50.0615454	19.9290234	Plac Generała Władysława Sikorskiego	5	
50.0586311	19.9290308	Smoleńsk	10	
50.0585928	19.9287847	Smoleńsk	12	
50.0588363	19.9288137	Smoleńsk	25a	
50.0581503	19.9263600	Smoleńsk	26	
50.0586313	19.9279151	Smoleńsk	27	
50.0594168	19.9322172	Smoleńsk	3	
50.0583338	19.9263086	Smoleńsk	37	
50.0593641	19.9319083	Smoleńsk	5	
50.0586960	19.9292629	Smoleńsk	8	
50.0575427	19.9304123	Zwierzyniecka	21	
50.0566103	19.9292357	Zwierzyniecka	29	
50.0583751	19.9326242	Zwierzyniecka	4	
50.0580906	19.9319097	Zwierzyniecka	10	
50.0586456	19.9293288	Felicjanek	1	
50.0568598	19.9323801	Tarłowska	1	
50.0573623	19.9314855	Tarłowska	11	
50.0574083	19.9314022	Tarłowska	13	
50.0578804	19.9294621	Felicjanek	15	
50.0574560	19.9313218	Tarłowska	15	
50.0575064	19.9312676	Tarłowska	17	
50.0575567	19.9312151	Tarłowska	19	
50.0576185	19.9302727	Mała	2	
50.0576045	19.9311564	Tarłowska	21	
50.0569658	19.9321841	Tarłowska	3	
50.0583854	19.9296514	Felicjanek	4	
50.0534490	19.9212534	Bolesława Komorowskiego	1	
50.0570342	19.9247827	Kornela Ujejskiego	1	
50.0540753	19.9235390	Marcina Borelowskiego-Lelewela	1	
50.0593757	19.9275817	Retoryka	1	
50.0572161	19.9281996	Wygoda	1	
50.0550794	19.9265491	Władysława Syrokomli	1	
50.0557748	19.9276610	Aleja Zygmunta Krasińskiego	1-3	
50.0558122	19.9263188	Kazimierza Morawskiego	10	
50.0585030	19.9287579	Retoryka	10	
50.0554964	19.9243550	Włóczków	10	
50.0540183	19.9205075	Bolesława Komorowskiego	11	
50.0547820	19.9229419	Marcina Borelowskiego-Lelewela	11	
50.0587322	19.9280221	Retoryka	11	
50.0574804	19.9274192	Wygoda	11	
50.0575174	19.9267000	Aleja Zygmunta Krasińskiego	11b	Izba Celna w Krakowie
50.0577303	19.9265337	Aleja Zygmunta Krasińskiego	11C	HB Części AGD
50.0541367	19.9203721	Bolesława Komorowskiego	11a	
50.0557624	19.9260467	Kazimierza Morawskiego	12	
50.0556330	19.9241953	Włóczków	12	
50.0549384	19.9228122	Marcina Borelowskiego-Lelewela	13	
50.0548470	19.9197601	Senatorska	13	
50.0575333	19.9272632	Wygoda	13	
50.0581197	19.9288266	Retoryka	14	
50.0580678	19.9263446	Aleja Zygmunta Krasińskiego	15	
50.0583740	19.9261618	Aleja Zygmunta Krasińskiego	17	
50.0533832	19.9208067	Bolesława Komorowskiego	2	
50.0579395	19.9293482	Emila Zegadłowicza	2	
50.0540608	19.9232743	Marcina Borelowskiego-Lelewela	2	
50.0596507	19.9281740	Retoryka	2	
50.0553123	19.9256200	Władysława Syrokomli	2	
50.0547307	19.9250512	Włóczków	2	
50.0579244	19.9254237	Rotmistrza Zbigniewa Dunin-Wąsowicza	2	
50.0544770	19.9189380	Senatorska	21	
50.0553392	19.9219576	Marcina Borelowskiego-Lelewela	22	
50.0571397	19.9248011	Władysława Syrokomli	22	
50.0572599	19.9283988	Retoryka	23	
50.0570744	19.9289791	Retoryka	24	
50.0591098	19.9256600	Aleja Zygmunta Krasińskiego	25	
50.0544544	19.9178952	Senatorska	25	
50.0568814	19.9290071	Retoryka	26	
50.0566883	19.9290350	Retoryka	28	
50.0575537	19.9245790	Władysława Syrokomli	28	
50.0535601	19.9210863	Bolesława Komorowskiego	3	
50.0581073	19.9289923	Emila Zegadłowicza	3	
50.0553432	19.9270291	Aleja Zygmunta Krasińskiego	4	
50.0594979	19.9282718	Retoryka	4	
50.0593604	19.9283645	Retoryka	4A	
50.0592228	19.9284572	Retoryka	4B	
50.0591190	19.9285243	Retoryka	6	
50.0551319	19.9247491	Włóczków	6	
50.0590008	19.9286033	Retoryka	6A	
50.0588531	19.9286995	Retoryka	8	
50.0575831	19.9244628	Rotmistrza Zbigniewa Dunin-Wąsowicza	8	
50.0557103	19.9259588	Władysława Syrokomli	9	
50.0672335	19.9597855	Aleja Pułkownika Władysława Beliny-Prażmowskiego	1	Türk Döner Kebap
50.0885996	19.9023892	Josepha Conrada	29	Conrad Hotel
50.0701080	19.9329218	Szlak	1A	Agencja Pocztowa
50.0770306	19.9805694	Ugorek	14	Agencja Pocztowa
50.0886476	19.9474171	Imbramowska	30	Agencja Pocztowa
50.0576114	19.9523248	Aleja Ignacego Daszyńskiego	16	FUP Kraków 1
50.0724347	19.9291018	Aleja Artura Grottgera	3	FUP Kraków 16
50.0740789	19.9352902	Aleja Juliusza Słowackiego	64	FUP Kraków 65
50.0830441	19.9757050	Mirosława Dzielskiego	2	FUP Kraków 73
50.0943789	19.9334612	Stanisława Pigonia	1	FUP Kraków 73
50.0650619	19.8776490	Królowej Jadwigi	238	FUP Kraków 23
50.0653765	19.9334328	Garbarska	12	UP Kraków 3
50.0934354	20.0219807	Generała Leopolda Okulickiego	51	FUP Kraków 60
50.0732993	19.9838210	Łąkowa	27	FUP Kraków 49
50.0435592	19.8195293	Astronautów	5	FUP Kraków 23
50.0679374	19.9409396	Rynek Kleparski	15	UP Kraków 5
50.0593065	19.9370050	Plac Wszystkich Świętych	9	UP Kraków 61
50.0907940	19.9267842	Opolska	37	FUP Kraków 23
50.0781206	19.9237274	Wrocławska	48-50	UP Kraków 65
50.0578956	19.9288476	Retoryka	16	Poczta Polska FUP Kraków 1
50.0545279	19.9188469	Bolesława Prusa	1	
50.0550545	19.9200013	Józefa Ignacego Kraszewskiego	1	
50.0564016	19.9194383	Salwatorska	1	
50.0552177	19.9269491	Tadeusza Kościuszki	1	
50.0558018	19.9188170	Salwatorska	10	
50.0552914	19.9177049	Bolesława Prusa	14	
50.0553161	19.9181194	Bolesława Prusa	15	
50.0556743	19.9179534	Salwatorska	15	
50.0564745	19.9194119	Filarecka	16	
50.0557850	19.9189269	Józefa Ignacego Kraszewskiego	16	
50.0554738	19.9181468	Salwatorska	16	
50.0556759	19.9178189	Bolesława Prusa	17	
50.0552153	19.9175153	Salwatorska	18	
50.0559201	19.9191788	Józefa Ignacego Kraszewskiego	19	
50.0544277	19.9185462	Bolesława Prusa	2	
50.0549288	19.9197369	Józefa Ignacego Kraszewskiego	2	
50.0541018	19.9236972	Tadeusza Kościuszki	27	
50.0574333	19.9160608	Bolesława Prusa	28	
50.0539737	19.9233070	Tadeusza Kościuszki	29	
50.0551151	19.9199437	Józefa Ignacego Kraszewskiego	3	
50.0550723	19.9267185	Tadeusza Kościuszki	3	
50.0566728	19.9170191	Bolesława Prusa	31	
50.0569132	19.9179688	Józefa Ignacego Kraszewskiego	34	
50.0531943	19.9216672	Tadeusza Kościuszki	48	
50.0551792	19.9198865	Józefa Ignacego Kraszewskiego	5	
50.0549906	19.9258933	Tadeusza Kościuszki	5	
50.0559852	19.9191679	Salwatorska	8	
50.0567864	19.9159141	Juliana Fałata	11	
50.0566518	19.9154953	Juliana Fałata	13	
50.0570990	19.9188176	Juliana Fałata	2	
50.0570546	19.9186036	Juliana Fałata	2a	
50.0570130	19.9183621	Juliana Fałata	2b	
50.0568642	19.9176896	Juliana Fałata	4	
50.0567466	19.9170840	Juliana Fałata	6	
50.0568935	19.9163672	Juliana Fałata	9	
50.0408002	20.0678058	Łutnia	19	Agencja Pocztowa
50.0166730	19.8082799	Benedyktyńska	10	FUP Kraków 11
49.9909679	19.9422864	Szybisko	36	UP Kraków 25
50.0009987	19.9125445	Narvik	36	
50.0122691	19.9265879	Orzechowa	5	Agencja Pocztowa
50.0202853	19.9604224	Walerego Sławka	41	
50.0257010	19.9890953	Bieżanowska	47	Agencja Pocztowa
50.0354526	19.9941373	Gliniana	15	Agencja Pocztowa Kraków
50.0378418	19.9400313	Stanisława Mitery	11	Agencja Pocztowa
50.0444384	19.9464879	Legionów Józefa Piłsudskiego	7	
50.0445574	19.9608429	Generała Jana Henryka Dąbrowskiego	23	Agencja Pocztowa
50.0320788	19.9774234	Prokocimska	6	UP Kraków 4
50.0120934	19.9549546	Wincentego Witosa	39	Filia Urzędu Pocztowego Kraków 47
50.0325186	19.9389066	Wadowicka	6	UP Kraków 55
50.0573696	19.9160293	Leona Wyczółkowskiego	1	
50.0608470	19.9301643	Czapskich	2	
50.0571043	19.9162515	Leona Wyczółkowskiego	2	
50.0606105	19.9209054	Oleandry	2	
50.0632203	19.9221615	Aleja Adama Mickiewicza	24	
50.0629115	19.9221512	Aleja Adama Mickiewicza	26	
50.0667948	19.9253709	Aleja Adama Mickiewicza	37	
50.0570091	19.9157577	Leona Wyczółkowskiego	4	
50.0672179	19.9256517	Aleja Adama Mickiewicza	41	
50.0673516	19.9257376	Aleja Adama Mickiewicza	43	
50.0674854	19.9258236	Aleja Adama Mickiewicza	45	
50.0675814	19.9259012	Aleja Adama Mickiewicza	47	
50.0676949	19.9259871	Aleja Adama Mickiewicza	49	
50.0603052	19.9218523	Aleja 3 Maja	5	
50.0603575	19.9300496	Czapskich	5	
50.0678031	19.9260836	Aleja Adama Mickiewicza	51	
50.0679368	19.9261653	Aleja Adama Mickiewicza	53	
50.0680934	19.9262555	Aleja Adama Mickiewicza	55	
50.0682634	19.9263540	Aleja Adama Mickiewicza	57	
50.0683555	19.9264463	Aleja Adama Mickiewicza	59	
50.0604405	19.9303133	Czapskich	6	
50.0568793	19.9152520	Leona Wyczółkowskiego	6	
50.0609428	19.9258710	Wenecja	6	
50.0684851	19.9265092	Aleja Adama Mickiewicza	61	
50.0686888	19.9265972	Aleja Adama Mickiewicza	63	
50.0603610	19.9207117	Aleja 3 Maja	7	
50.0609439	19.9256407	Szczepana Humberta	2	
50.0671875	19.9205962	Stanisława Konarskiego	1	
50.0685731	19.9206200	Stanisława Konarskiego	16	
50.0700801	19.9208082	Stanisława Konarskiego	38	
50.0700063	19.9211668	Stanisława Konarskiego	39	
50.0701324	19.9212720	Stanisława Konarskiego	41	
50.0680056	19.9184163	Urzędnicza	1	
50.0705836	19.9189435	Urzędnicza	33	
50.0679205	19.9179388	Urzędnicza	4	
50.0680747	19.9180034	Urzędnicza	6	Słodka Manufaktura
50.0684545	19.9170548	Spokojna	10	
50.0686522	19.9170899	Spokojna	12	
50.0660272	19.9263221	Czarnowiejska	17	
50.0685006	19.9205473	Fryderyka Chopina	17	
50.0700407	19.9152264	Chocimska	22	
50.0708894	19.9159256	Chocimska	29	
50.0679734	19.9186544	Fryderyka Chopina	33	
50.0668524	19.9216912	Czarnowiejska	41	
50.0668984	19.9213749	Czarnowiejska	43	
50.0671073	19.9206414	Czarnowiejska	51	
50.0678041	19.9178794	Czarnowiejska	73	
50.0699335	19.9211802	Juliusza Lea	11	
50.0700378	19.9207068	Juliusza Lea	11b	
50.0703107	19.9197039	Juliusza Lea	17a	
50.0703519	19.9195635	Juliusza Lea	17b	
50.0704086	19.9193548	Juliusza Lea	19	
50.0705000	19.9190279	Juliusza Lea	19a	
50.0709030	19.9161012	Juliusza Lea	30	
50.0710150	19.9149077	Juliusza Lea	36b	
50.0712907	19.9149861	Juliusza Lea	43	
50.0695665	19.9229274	Juliusza Lea	7	
50.0720705	19.9055684	Juliusza Lea	100	
50.0726163	19.9021916	Juliusza Lea	149	
50.0726192	19.9020542	Juliusza Lea	151	
50.0717712	19.9084645	Juliusza Lea	90a	
50.0717858	19.9082793	Juliusza Lea	90b	
50.0718045	19.9080672	Juliusza Lea	90c	
50.0718229	19.9078782	Juliusza Lea	90d	
50.0718627	19.9074904	Juliusza Lea	94	
50.0718863	19.9072577	Juliusza Lea	96	
50.0719561	19.9064565	Juliusza Lea	98	
50.0653166	19.9331679	Garbarska	16	
50.0657794	19.9304790	Karmelicka	23	
50.0648128	19.9319339	Garbarska	26	
50.0663509	19.9297821	Karmelicka	29	
50.0656181	19.9340335	Garbarska	6	
50.0685504	19.9397854	Świętego Filipa	11	
50.0683349	19.9404546	Świętego Filipa	15	
50.0687970	19.9387450	Świętego Filipa	3	
50.0622949	19.9318151	Podwale	2	
50.0666293	19.9265770	Jana Kochanowskiego	17	
50.0661335	19.9278372	Jana Kochanowskiego	8	
50.0577139	19.9304509	Mała	3	
50.0639098	19.9275357	Czysta	1	
50.0638620	19.9253136	Czysta	21	
50.0694301	19.9285528	Teofila Lenartowicza	4	
50.0707561	19.9147383	Aleja Kijowska	10	
50.0714426	19.9149167	Aleja Kijowska	12	
50.0749381	19.9189053	Racławicka	12	
50.0750326	19.9189479	Racławicka	14	
50.0700181	19.9146249	Aleja Kijowska	8	
50.0725237	19.9135915	Leopolda Staffa	1	
50.0718713	19.9202860	Królewska	41	
50.0719283	19.9200792	Królewska	43	
50.0707013	19.9240492	Królewska	5	
50.0718623	19.9188048	Królewska	58/9	
50.0713297	19.9183982	Królewska	60	
50.0715068	19.9185334	Królewska	62	
50.0717033	19.9186553	Królewska	64	
50.0712176	19.9176384	Królewska	66	
50.0711291	19.9179209	Królewska	68	
50.0708574	19.9235431	Królewska	7	
50.0710494	19.9182146	Królewska	70	
50.0733520	19.9189388	Kazimierza Wielkiego	70	
50.0714356	19.9177977	Królewska	72	
50.0734142	19.9187978	Kazimierza Wielkiego	72	
50.0716565	19.9179462	Królewska	74	
50.0718774	19.9180947	Królewska	76	
50.0720515	19.9180588	Królewska	78	
50.0715297	19.9240592	Józefitów	1	
50.0708957	19.9236610	Józefitów	11	
50.0707754	19.9240428	Józefitów	12	
50.0714414	19.9244656	Józefitów	2	
50.0696293	19.9230355	Józefitów	21	
50.0699117	19.9259895	Henryka Sienkiewicza	1	
50.0712142	19.9250182	Pomorska	10	
50.0700902	19.9256031	Henryka Sienkiewicza	2	
50.0706155	19.9263437	Henryka Sienkiewicza	9	
50.0741137	19.9230647	Aleja Artura Grottgera	32a	
50.0746443	19.9228776	Aleja Artura Grottgera	43	
50.0722785	19.9254799	Stanisława Wyspiańskiego	3	
50.0732610	19.9227675	Kujawska	16	
50.0735455	19.9228625	Kujawska	18	
50.0725114	19.9224847	Kujawska	2	
50.0740313	19.9230380	Kujawska	26	
50.0726048	19.9225504	Kujawska	4	
50.0735300	19.9227617	Zbrojów	1	
50.0733086	19.9227269	Zbrojów	2	
50.0733394	19.9224642	Zbrojów	4	
50.0733454	19.9222887	Zbrojów	6	
50.0748386	19.9232216	Rzeczna	11	
50.0746044	19.9229991	Rzeczna	15	
50.0715971	19.9240685	Kazimierza Wielkiego	16	
50.0713255	19.9250197	Kazimierza Wielkiego	2	
50.0717825	19.9233975	Kazimierza Wielkiego	22	
50.0724283	19.9223721	Kazimierza Wielkiego	29	
50.0724134	19.9214860	Kazimierza Wielkiego	42	
50.0726615	19.9208213	Kazimierza Wielkiego	52	
50.0714518	19.9246100	Kazimierza Wielkiego	6	
50.0739353	19.9184042	Kazimierza Wielkiego	67	
50.0739885	19.9181998	Kazimierza Wielkiego	69	
50.0740809	19.9180016	Kazimierza Wielkiego	71	
50.0741638	19.9178195	Kazimierza Wielkiego	73	
50.0741998	19.9176318	Kazimierza Wielkiego	75	
50.0742346	19.9174490	Kazimierza Wielkiego	77	
50.0728399	19.9312360	Mazowiecka	1	
50.0731655	19.9300313	Mazowiecka	10	
50.0733713	19.9295370	Mazowiecka	12	
50.0735664	19.9300048	Mazowiecka	15	
50.0745086	19.9286774	Mazowiecka	19	
50.0726918	19.9308293	Mazowiecka	2	
50.0727867	19.9305927	Mazowiecka	4	
50.0728897	19.9304086	Mazowiecka	6	
50.0781898	19.9187212	Mazowiecka	131	
50.0753207	19.9259971	Mazowiecka	41	
50.0760474	19.9217425	Mazowiecka	78a	
50.0760826	19.9216537	Mazowiecka	78b	
50.0759305	19.9211463	Mazowiecka	82	
50.0763039	19.9214917	Mazowiecka	84	
50.0736516	19.9299864	Lubelska	1	
50.0738488	19.9341220	Śląska	1	
50.0757685	19.9306648	Wrocławska	11	
50.0738575	19.9316374	Lubelska	13	
50.0736084	19.9317572	Lubelska	13a	
50.0741482	19.9313680	Lubelska	14	
50.0743194	19.9325927	Lubelska	18b	
50.0737516	19.9336279	Śląska	2	
50.0745420	19.9288029	Świętokrzyska	2	
50.0741657	19.9336584	Lubelska	21	
50.0744273	19.9354101	Lubelska	31	
50.0780860	19.9218843	Litewska	41	
50.0781604	19.9216776	Litewska	43	
50.0782361	19.9214924	Litewska	45	
50.0779511	19.9240767	Wrocławska	48	
50.0740526	19.9336684	Śląska	5	
50.0737461	19.9306461	Lubelska	7	
50.0697764	19.9260331	Plac Inwalidów	7	
50.0696464	19.9261972	Plac Inwalidów	8	
50.0750484	19.9329755	Wrocławska	8	
50.0749623	19.9334636	Wrocławska	8a	
50.0744431	19.9325683	Śląska	8a	
50.0763700	19.9268333	Litewska	9	
50.0738128	19.9310731	Lubelska	9	
50.0756616	19.9313064	Wrocławska	9	
50.0774531	19.9325859	Emilii Plater	1	
50.0757577	19.9313038	Józefa Friedleina	1	
50.0799140	19.9328570	Składowa	12	
50.0798764	19.9319461	Składowa	14	
50.0772208	19.9325045	Emilii Plater	2	
50.0752886	19.9261679	Wójtowska	2	
50.0758319	19.9307091	Władysława Łokietka	2	
50.0781428	19.9226270	Kmieca	20	
50.0782578	19.9226627	Kmieca	22	
50.0771530	19.9325411	Iwona Odrowąża	24	
50.0783770	19.9227048	Kmieca	24	
50.0774920	19.9326429	Iwona Odrowąża	26	
50.0785003	19.9227206	Kmieca	26	
50.0784580	19.9322791	Józefa Friedleina	33	
50.0786132	19.9323143	Józefa Friedleina	35	
50.0790693	19.9324076	Józefa Friedleina	39	
50.0792148	19.9324429	Józefa Friedleina	39a	
50.0764203	19.9312562	Józefa Friedleina	4	
50.0797558	19.9321914	Józefa Friedleina	40	
50.0798342	19.9325337	Józefa Friedleina	49	
50.0788586	19.9372242	Zbożowa	5	
50.0791286	19.9330952	Iwona Odrowąża	52	
50.0792405	19.9331235	Iwona Odrowąża	54	
50.0790669	19.9372576	Zbożowa	7	
50.0722759	19.9361754	Helclów	1	
50.0667348	19.9414640	Ignacego Jana Paderewskiego	1	
50.0675128	19.9388885	Krzywa	1	
50.0677342	19.9397945	Krótka	1	
50.0686852	19.9434762	Ogrodowa	1	
50.0659002	19.9422165	Plac Jana Matejki	1	
50.0680197	19.9431923	Warszawska	1	
50.0675240	19.9400920	Krzywa	10	
50.0682856	19.9397982	Krótka	10	
50.0674151	19.9423048	Plac Jana Matejki	10	
50.0671339	19.9401146	Rynek Kleparski	10	
50.0662174	19.9445564	Stanisława Worcella	10	
50.0688786	19.9432158	Warszawska	10	
50.0664143	19.9432714	Zacisze	10	
50.0722270	19.9372749	Helclów	11	
50.0673904	19.9398987	Krzywa	11	
50.0672490	19.9421883	Plac Jana Matejki	11	
50.0672682	19.9402313	Rynek Kleparski	11	
50.0690080	19.9438669	Warszawska	11	
50.0703112	19.9278990	Aleja Juliusza Słowackiego	11A	
50.0704734	19.9281776	Aleja Juliusza Słowackiego	11B	
50.0674429	19.9404186	Rynek Kleparski	11a	
50.0704242	19.9268814	Aleja Juliusza Słowackiego	12	
50.0674356	19.9403242	Krzywa	12	
50.0668429	19.9419095	Plac Jana Matejki	12	
50.0675755	19.9405502	Rynek Kleparski	12	
50.0694950	19.9434211	Warszawska	12	
50.0666078	19.9433442	Zacisze	12	
50.0696150	19.9434418	Warszawska	12a	
50.0722172	19.9374948	Helclów	13	
50.0673199	19.9400937	Krzywa	13	
50.0677081	19.9406818	Rynek Kleparski	13	
50.0693896	19.9437280	Warszawska	13	
50.0707100	19.9287475	Aleja Juliusza Słowackiego	13A	
50.0709410	19.9291889	Aleja Juliusza Słowackiego	13B	
50.0678407	19.9408134	Rynek Kleparski	14	
50.0697617	19.9434625	Warszawska	14	
50.0667745	19.9434073	Zacisze	14	
50.0710220	19.9347551	Szlak	14A	
50.0710958	19.9349829	Szlak	14B	
50.0722074	19.9377146	Helclów	15	
50.0712841	19.9355678	Szlak	16	
50.0669756	19.9434793	Zacisze	16	
50.0711498	19.9351245	Szlak	16A	
50.0712104	19.9353338	Szlak	16B	
50.0675609	19.9417418	Rynek Kleparski	17	
50.0708798	19.9352069	Szlak	17	
50.0696895	19.9439722	Warszawska	17	
50.0694922	19.9446838	Warszawska	17a	
50.0673075	19.9415569	Rynek Kleparski	18	
50.0713684	19.9358982	Szlak	18	
50.0700793	19.9435338	Warszawska	18	
50.0721863	19.9381826	Helclów	19	
50.0669706	19.9413244	Rynek Kleparski	19	
50.0709325	19.9353768	Szlak	19	
50.0719136	19.9380040	Helclów	19a	
50.0696625	19.9263808	Aleja Juliusza Słowackiego	2	
50.0676982	19.9389330	Krzywa	2	
50.0677665	19.9394363	Krótka	2	
50.0661257	19.9423397	Plac Jana Matejki	2	Glonojad
50.0678179	19.9427932	Warszawska	2	
50.0657373	19.9427651	Zacisze	2	
50.0703267	19.9434701	Warszawska	20	
50.0721781	19.9384170	Helclów	21	
50.0709931	19.9355692	Szlak	21	
50.0715640	19.9367293	Szlak	22	
50.0721698	19.9386515	Helclów	23	
50.0710630	19.9357822	Szlak	23	
50.0721616	19.9388860	Helclów	25	
50.0711460	19.9360300	Szlak	25	
50.0721534	19.9391205	Helclów	27	
50.0715713	19.9375441	Szlak	28	
50.0726019	19.9322495	Aleja Juliusza Słowackiego	29	
50.0713100	19.9367434	Szlak	29	
50.0722661	19.9363953	Helclów	3	
50.0675127	19.9390558	Krzywa	3	
50.0679922	19.9399699	Krótka	3	
50.0671514	19.9434692	Kurniki	3	
50.0686387	19.9437436	Ogrodowa	3	
50.0662919	19.9424934	Plac Jana Matejki	3	
50.0682605	19.9433333	Warszawska	3	Laiko Apartments
50.0656444	19.9431411	Zacisze	3	
50.0715742	19.9378228	Szlak	30	
50.0727077	19.9324805	Aleja Juliusza Słowackiego	31	
50.0713054	19.9369419	Szlak	31	
50.0715771	19.9381015	Szlak	32	
50.0727783	19.9326980	Aleja Juliusza Słowackiego	33	
50.0713101	19.9371875	Szlak	33	
50.0715800	19.9383802	Szlak	34	
50.0728599	19.9328765	Aleja Juliusza Słowackiego	35	
50.0713201	19.9375296	Szlak	35	
50.0725913	19.9307996	Aleja Juliusza Słowackiego	36	
50.0715829	19.9386589	Szlak	36	
50.0713234	19.9377916	Szlak	37	
50.0728416	19.9313360	Aleja Juliusza Słowackiego	38	
50.0715858	19.9389376	Szlak	38	
50.0713268	19.9380537	Szlak	39	
50.0677058	19.9390864	Krzywa	4	
50.0678963	19.9395268	Krótka	4	
50.0674340	19.9441153	Kurniki	4	
50.0663893	19.9425372	Plac Jana Matejki	4	
50.0680394	19.9428811	Warszawska	4	
50.0659874	19.9430113	Zacisze	4	
50.0731489	19.9339469	Aleja Juliusza Słowackiego	41	
50.0713301	19.9383158	Szlak	41	
50.0732138	19.9342204	Aleja Juliusza Słowackiego	43	
50.0713335	19.9385778	Szlak	43	
50.0731860	19.9320623	Aleja Juliusza Słowackiego	44	
50.0732848	19.9323083	Aleja Juliusza Słowackiego	46	
50.0733783	19.9325519	Aleja Juliusza Słowackiego	48	
50.0695664	19.9272888	Aleja Juliusza Słowackiego	5	
50.0722563	19.9366152	Helclów	5	
50.0675107	19.9392342	Krzywa	5	
50.0681230	19.9400546	Krótka	5	
50.0670308	19.9437145	Kurniki	5	
50.0665609	19.9426590	Plac Jana Matejki	5	Jarema
50.0664628	19.9395315	Rynek Kleparski	5	
50.0661869	19.9436326	Stanisława Worcella	5	
50.0685044	19.9433735	Warszawska	5	
50.0659701	19.9433692	Zacisze	5	
50.0711084	19.9398930	Szlak	51	
50.0710695	19.9400690	Szlak	53	
50.0710360	19.9402306	Szlak	55	
50.0736569	19.9336150	Aleja Juliusza Słowackiego	56	
50.0709945	19.9404127	Szlak	57	
50.0738054	19.9342906	Aleja Juliusza Słowackiego	58	
50.0709359	19.9406215	Szlak	59	
50.0677235	19.9393310	Krzywa	6	
50.0680260	19.9396172	Krótka	6	
50.0673840	19.9445847	Kurniki	6	
50.0667325	19.9427807	Plac Jana Matejki	6	
50.0666291	19.9396756	Rynek Kleparski	6	
50.0683765	19.9430017	Warszawska	6	
50.0661433	19.9431106	Zacisze	6	
50.0709050	19.9407667	Szlak	61	
50.0708607	19.9409547	Szlak	63	
50.0706407	19.9412443	Szlak	65	
50.0685221	19.9430671	Warszawska	6a	
50.0696928	19.9273676	Aleja Juliusza Słowackiego	7	
50.0722465	19.9368351	Helclów	7	
50.0675153	19.9394569	Krzywa	7	
50.0671356	19.9441946	Kurniki	7	
50.0669041	19.9429025	Plac Jana Matejki	7	
50.0667505	19.9397872	Rynek Kleparski	7	
50.0660486	19.9441765	Stanisława Worcella	7	
50.0686427	19.9434257	Warszawska	7	
50.0661500	19.9434949	Zacisze	7	
50.0703937	19.9432906	Szlak	73	
50.0701940	19.9430854	Szlak	73a	
50.0676225	19.9398025	Krzywa	8	
50.0681558	19.9397077	Krótka	8	
50.0670757	19.9430242	Plac Jana Matejki	8	
50.0668655	19.9398814	Rynek Kleparski	8	
50.0686816	19.9431384	Warszawska	8	
50.0662643	19.9431739	Zacisze	8	TEB Technikum Kraków
50.0698192	19.9274464	Aleja Juliusza Słowackiego	9	
50.0722367	19.9370550	Helclów	9	
50.0674579	19.9397132	Krzywa	9	
50.0675241	19.9423745	Plac Jana Matejki	9	
50.0669997	19.9399980	Rynek Kleparski	9	
50.0659154	19.9446089	Stanisława Worcella	9	
50.0590066	19.9460718	Bonerowska	1	
50.0524256	19.9488805	Dajwór	1	
50.0633505	19.9454389	Doktora Ludwika Zamenhofa	1	
50.0585720	19.9458372	Librowszczyzna	1	
50.0627371	19.9454292	Marii Skłodowskiej-Curie	1	
50.0605317	19.9439559	Mikołaja Zyblikiewicza	1	
50.0587581	19.9473971	Morsztynowska	1	
50.0614198	19.9473717	Radziwiłłowska	1	
50.0592590	19.9422345	Starowiślna	1	
50.0530945	19.9474679	Szeroka	1	
50.0590252	19.9431774	Wielopole	1	
50.0591763	19.9469006	Bonerowska	10	
50.0635854	19.9465278	Doktora Ludwika Zamenhofa	10	
50.0629285	19.9461980	Marii Skłodowskiej-Curie	10	
50.0611635	19.9458150	Mikołaja Kopernika	10	
50.0598827	19.9457748	Mikołaja Zyblikiewicza	10	
50.0623997	19.9469431	Radziwiłłowska	10	
50.0581504	19.9437646	Starowiślna	10	
50.0527241	19.9483025	Szeroka	10	
50.0590500	19.9472635	Bonerowska	11	
50.0634972	19.9470197	Doktora Ludwika Zamenhofa	11	
50.0628443	19.9467158	Marii Skłodowskiej-Curie	11	
50.0625106	19.9471125	Radziwiłłowska	11	
50.0583330	19.9432268	Starowiślna	11	
50.0591832	19.9470077	Bonerowska	12	
50.0636231	19.9470048	Doktora Ludwika Zamenhofa	12	
50.0629566	19.9464786	Marii Skłodowskiej-Curie	12	
50.0598693	19.9460497	Mikołaja Zyblikiewicza	12	
50.0625099	19.9469148	Radziwiłłowska	12	
50.0579297	19.9440064	Starowiślna	12	
50.0526031	19.9483498	Szeroka	12	
50.0635075	19.9472106	Doktora Ludwika Zamenhofa	13	
50.0626901	19.9470929	Radziwiłłowska	13	
50.0525394	19.9483817	Szeroka	13	
50.0578539	19.9426602	Starowiślna	13a	
50.0591852	19.9472091	Bonerowska	14	
50.0629729	19.9466542	Marii Skłodowskiej-Curie	14	
50.0598517	19.9463016	Mikołaja Zyblikiewicza	14	
50.0626405	19.9468852	Radziwiłłowska	14	
50.0577412	19.9442087	Starowiślna	14	
50.0524361	19.9483636	Szeroka	14	
50.0628152	19.9470641	Radziwiłłowska	15	
50.0524035	19.9483760	Szeroka	15	
50.0613719	19.9494814	Mikołaja Kopernika	15a	
50.0612220	19.9491104	Mikołaja Kopernika	15b	
50.0614378	19.9482602	Mikołaja Kopernika	15c	
50.0611959	19.9467847	Mikołaja Kopernika	16	
50.0598344	19.9465778	Mikołaja Zyblikiewicza	16	
50.0627701	19.9468510	Radziwiłłowska	16	
50.0575275	19.9444706	Starowiślna	16	The Masala Rolls
50.0621335	19.9500487	Mikołaja Kopernika	17	
50.0629317	19.9470095	Radziwiłłowska	17	
50.0522514	19.9484633	Szeroka	17	
50.0598174	19.9468539	Mikołaja Zyblikiewicza	18	
50.0630429	19.9467835	Radziwiłłowska	18	
50.0573900	19.9445816	Starowiślna	18	
50.0521836	19.9484922	Szeroka	18	
50.0627290	19.9519379	Mikołaja Kopernika	19	
50.0596568	19.9472017	Mikołaja Zyblikiewicza	19	
50.0630752	19.9469790	Radziwiłłowska	19	
50.0521069	19.9485262	Szeroka	19	
50.0583239	19.9453050	Wielopole	19	
50.0591426	19.9459398	Bonerowska	2	
50.0634908	19.9454185	Doktora Ludwika Zamenhofa	2	
50.0586120	19.9455918	Librowszczyzna	2	
50.0628485	19.9452778	Marii Skłodowskiej-Curie	2	
50.0611886	19.9445110	Mikołaja Kopernika	2	
50.0589655	19.9473738	Morsztynowska	2	
50.0527680	19.9496660	Rzeszowska	2	
50.0588924	19.9429694	Starowiślna	2	
50.0531324	19.9476916	Szeroka	2	
50.0601600	19.9451091	Mikołaja Zyblikiewicza	2	
50.0506880	19.9496832	Dajwór	20	
50.0598029	19.9471103	Mikołaja Zyblikiewicza	20	
50.0631740	19.9467529	Radziwiłłowska	20	
50.0572821	19.9446981	Starowiślna	20	
50.0519967	19.9485798	Szeroka	20	
50.0508935	19.9493695	Dajwór	21	
50.0630880	19.9529873	Mikołaja Kopernika	21	
50.0632062	19.9469494	Radziwiłłowska	21	
50.0583119	19.9458425	Wielopole	21	
50.0633050	19.9535393	Mikołaja Kopernika	21b	
50.0616022	19.9480792	Mikołaja Kopernika	22	
50.0599925	19.9472451	Mikołaja Zyblikiewicza	22	
50.0633591	19.9467076	Radziwiłłowska	22	
50.0571985	19.9447818	Starowiślna	22	
50.0518206	19.9487165	Szeroka	22	
50.0635077	19.9547883	Mikołaja Kopernika	23	
50.0633756	19.9469046	Radziwiłłowska	23	
50.0637271	19.9466100	Radziwiłłowska	24	
50.0505679	19.9494644	Dajwór	25	
50.0637042	19.9468254	Radziwiłłowska	25	
50.0639759	19.9465597	Radziwiłłowska	26	
50.0638468	19.9467986	Radziwiłłowska	27	
50.0566876	19.9449831	Starowiślna	27	
50.0516026	19.9481573	Szeroka	27	
50.0517366	19.9481241	Szeroka	28	
50.0640038	19.9467956	Radziwiłłowska	29	
50.0559918	19.9457011	Starowiślna	29	
50.0518277	19.9481161	Szeroka	29	
50.0589126	19.9463310	Bonerowska	3	
50.0643772	19.9551312	Botaniczna	3	
50.0522357	19.9489678	Dajwór	3	
50.0588428	19.9458004	Librowszczyzna	3	
50.0627548	19.9456529	Marii Skłodowskiej-Curie	3	
50.0593134	19.9473469	Morsztynowska	3	
50.0616116	19.9473469	Radziwiłłowska	3	
50.0589646	19.9424580	Starowiślna	3	Szkoła podstawowa nr 159
50.0531907	19.9478870	Szeroka	3	
50.0589039	19.9435119	Wielopole	3	
50.0624776	19.9498942	Mikołaja Kopernika	30	
50.0642592	19.9464914	Radziwiłłowska	30	
50.0518932	19.9480940	Szeroka	30	
50.0641427	19.9467264	Radziwiłłowska	31	
50.0558002	19.9459291	Starowiślna	31	
50.0519694	19.9480736	Szeroka	31	
50.0520233	19.9480304	Szeroka	32	
50.0643911	19.9466846	Radziwiłłowska	33	
50.0520781	19.9480354	Szeroka	33	
50.0521587	19.9480019	Szeroka	34	
50.0522801	19.9479472	Szeroka	35	
50.0629778	19.9513069	Mikołaja Kopernika	36	
50.0525192	19.9478391	Szeroka	38	
50.0526186	19.9476801	Szeroka	39	
50.0591526	19.9462420	Bonerowska	4	
50.0587990	19.9455677	Librowszczyzna	4	
50.0628662	19.9454598	Marii Skłodowskiej-Curie	4	
50.0615175	19.9471441	Radziwiłłowska	4	
50.0632602	19.9521696	Mikołaja Kopernika	40	
50.0526639	19.9474024	Szeroka	40	
50.0637200	19.9533111	Mikołaja Kopernika	44	
50.0589780	19.9466143	Bonerowska	5	
50.0520601	19.9490131	Dajwór	5	
50.0592541	19.9457425	Librowszczyzna	5	
50.0627469	19.9459136	Marii Skłodowskiej-Curie	5	
50.0597921	19.9454098	Mikołaja Zyblikiewicza	5	
50.0595861	19.9473264	Morsztynowska	5	
50.0620998	19.9472105	Radziwiłłowska	5	
50.0588936	19.9426083	Starowiślna	5	
50.0591626	19.9465056	Bonerowska	6	
50.0589721	19.9455501	Librowszczyzna	6	
50.0628862	19.9456626	Marii Skłodowskiej-Curie	6	
50.0611516	19.9452041	Mikołaja Kopernika	6	
50.0585339	19.9433493	Starowiślna	6	Kantor Starowiślna
50.0531514	19.9481443	Szeroka	6	
50.0589797	19.9468885	Bonerowska	7	
50.0594608	19.9457129	Librowszczyzna	7	
50.0627987	19.9461639	Marii Skłodowskiej-Curie	7	
50.0610088	19.9461846	Mikołaja Kopernika	7	
50.0622330	19.9471827	Radziwiłłowska	7	
50.0587001	19.9428310	Starowiślna	7	
50.0529869	19.9482119	Szeroka	7	
50.0517967	19.9505738	Starowiślna	76	Hair Club La Bush
50.0610096	19.9457289	Mikołaja Kopernika	7A	
50.0605924	19.9457161	Mikołaja Kopernika	7B	
50.0603447	19.9462888	Mikołaja Kopernika	7C	
50.0602682	19.9467682	Mikołaja Kopernika	7D	
50.0609005	19.9465386	Mikołaja Kopernika	7F	
50.0591760	19.9467579	Bonerowska	8	
50.0591433	19.9455268	Librowszczyzna	8	
50.0629047	19.9459284	Marii Skłodowskiej-Curie	8	
50.0611624	19.9455634	Mikołaja Kopernika	8	
50.0599719	19.9454791	Mikołaja Zyblikiewicza	8	
50.0582958	19.9436088	Starowiślna	8	
50.0529372	19.9482279	Szeroka	8	
50.0589847	19.9470868	Bonerowska	9	
50.0634552	19.9465846	Doktora Ludwika Zamenhofa	9	
50.0596504	19.9456933	Librowszczyzna	9	
50.0628198	19.9464217	Marii Skłodowskiej-Curie	9	
50.0597391	19.9458816	Mikołaja Zyblikiewicza	9	
50.0623624	19.9471515	Radziwiłłowska	9	
50.0584730	19.9430672	Starowiślna	9	
50.0528585	19.9482676	Szeroka	9	
50.0510259	19.9510221	Starowiślna	93a	
50.0509097	19.9511326	Starowiślna	93b	
50.0506910	19.9513625	Starowiślna	95	
50.0569199	19.9464364	Wrzesińska	1	
50.0522657	19.9432265	Miodowa	10	
50.0520479	19.9432782	Miodowa	11	
50.0525241	19.9431953	Miodowa	12	Polska Restauracja
50.0546360	19.9469486	Berka Joselewicza	13	
50.0521890	19.9435097	Miodowa	13	
50.0524358	19.9435256	Miodowa	14	
50.0548451	19.9474003	Berka Joselewicza	15	
50.0523546	19.9437663	Miodowa	15	
50.0525135	19.9436513	Miodowa	16	
50.0524561	19.9439423	Miodowa	17	
50.0526086	19.9437863	Miodowa	18	
50.0515772	19.9422253	Miodowa	2	
50.0570373	19.9465821	Wrzesińska	2	
50.0527703	19.9439343	Miodowa	20	Propaganda
50.0526464	19.9446210	Miodowa	21	
50.0547796	19.9468785	Berka Joselewicza	22	
50.0528654	19.9440294	Miodowa	22	
50.0526966	19.9449740	Miodowa	23	
50.0550051	19.9473435	Berka Joselewicza	24	
50.0529076	19.9444822	Miodowa	24	
50.0529825	19.9451157	Miodowa	24a	
50.0527668	19.9452709	Miodowa	25	
50.0530327	19.9453399	Miodowa	26	
50.0530839	19.9455539	Miodowa	28	
50.0531656	19.9459249	Miodowa	28a	
50.0529361	19.9458411	Miodowa	29	
50.0529501	19.9460904	Miodowa	31	
50.0532168	19.9470123	Miodowa	33	Nolio Pop
50.0532893	19.9472462	Miodowa	39	
50.0516924	19.9424865	Miodowa	4	
50.0532618	19.9476179	Miodowa	41	
50.0539182	19.9488128	Miodowa	42	
50.0534231	19.9477632	Miodowa	43	
50.0518685	19.9427636	Miodowa	6	
50.0520084	19.9429655	Miodowa	8	
50.0531879	19.9446234	Podbrzezie	1	
50.0539232	19.9449399	Brzozowa	10	
50.0530078	19.9441690	Podbrzezie	2	
50.0534065	19.9447829	Podbrzezie	3	
50.0532510	19.9443853	Podbrzezie	4	
50.0536071	19.9448989	Podbrzezie	5	
50.0533509	19.9444856	Podbrzezie	6	
50.0534509	19.9445415	Podbrzezie	8	
50.0522656	19.9465618	Jakuba	11	
50.0518352	19.9474054	Ciemna	13	
50.0518049	19.9472572	Ciemna	15	
50.0517801	19.9471357	Ciemna	17	
50.0517558	19.9470168	Ciemna	19	
50.0519691	19.9466995	Jakuba	19	
50.0516889	19.9468315	Jakuba	21	
50.0547369	19.9447445	Świętego Sebastiana	25	
50.0549888	19.9448970	Świętego Sebastiana	26	
50.0515160	19.9469052	Jakuba	27	
50.0514445	19.9469294	Jakuba	29	
50.0528418	19.9462656	Jakuba	3	
50.0513500	19.9469571	Jakuba	31	
50.0512726	19.9469885	Jakuba	33	
50.0517953	19.9469330	Jakuba	4	
50.0523747	19.9465074	Jakuba	7	
50.0521524	19.9457825	Kupa	1	
50.0513354	19.9462812	Kupa	11	
50.0518293	19.9461697	Kupa	12	
50.0512645	19.9463147	Kupa	13	
50.0511905	19.9463369	Kupa	15	
50.0511273	19.9463766	Kupa	17	
50.0523706	19.9459271	Kupa	2	
50.0512896	19.9464413	Kupa	24	
50.0511763	19.9464870	Kupa	26	
50.0520102	19.9458314	Kupa	3	
50.0522132	19.9459913	Kupa	4	
50.0518449	19.9459168	Kupa	5	
50.0521137	19.9460383	Kupa	6	
50.0515541	19.9460446	Kupa	9	
50.0525948	19.9447133	Estery	1	
50.0519213	19.9453776	Estery	10	
50.0517978	19.9454366	Estery	12	
50.0517008	19.9455084	Estery	14	
50.0514980	19.9456861	Estery	18	
50.0526414	19.9449288	Estery	2	
50.0512117	19.9457931	Estery	20	
50.0510801	19.9458695	Estery	22	
50.0524099	19.9448559	Estery	3	
50.0524852	19.9450243	Estery	4	
50.0522620	19.9449326	Estery	5	
50.0523053	19.9451351	Estery	6	
50.0520691	19.9452873	Estery	8	
